station_uuid,durchschnitt_aenderung,uuid,name,brand,street,house_number,post_code,city,latitude,longitude,first_active,openingtimes_json
005056a9-4231-1edc-96b4-3199d13046b0,0.7083333333333334,005056a9-4231-1edc-96b4-3199d13046b0,ENI,AGIP ENI,Erdinger Allee,2,85356,München-Flughafen,48.360248,11.823794,2022-01-10T16:01:16.000+01:00,{}
7f6a1626-3a33-4e3a-8692-d7a76c349303,0.7837837837837838,7f6a1626-3a33-4e3a-8692-d7a76c349303,Heinrich Albers OHG,,Hauptstr.,126,26903,Surwold,52.97585,7.51764,2014-03-18T16:45:31.000+01:00,"\"{\"\"overrides\"\":[{\"\"startp\"\":\"\"2024-12-31 06:00\"\""
005056ba-7cb6-1ed2-bceb-cb39175b0d54,0.8148148148148148,005056ba-7cb6-1ed2-bceb-cb39175b0d54,star Tankstelle,STAR,Hauptstraße,20,21629,Neu Wulmstorf,53.465646,9.80351,2014-03-18T16:45:31.000+01:00,"\"{\"\"openingTimes\"\":[{\"\"applicable_days\"\":63"
9b6cd5ee-53d9-4dc6-be36-6a1a2bc33390,1.0,9b6cd5ee-53d9-4dc6-be36-6a1a2bc33390,Shell Hopsten Ibbenbürener Str. 7,Shell,Ibbenbürener Str.,7,48496,Hopsten,52.377547,7.601865,2014-03-18T16:45:31.000+01:00,"\"{\"\"openingTimes\"\":[{\"\"applicable_days\"\":192"
e7610360-d0e7-42d2-a4f9-343336b0020f,0.6153846153846154,e7610360-d0e7-42d2-a4f9-343336b0020f,BFT Weener Neue Str.,BFT,Neue Straße,52,26826,Weener,53.167132,7.350658,2014-03-18T16:45:31.000+01:00,"\"{\"\"openingTimes\"\":[{\"\"applicable_days\"\":31"
8c2c363f-70a8-4acc-8f3d-27ddf9321d70,0.68,8c2c363f-70a8-4acc-8f3d-27ddf9321d70,Hatice Gönül,Westfalen,Melanchthonstr.,40,30165,Hannover,52.39825,9.73079,2014-03-18T16:45:31.000+01:00,"\"{\"\"openingTimes\"\":[{\"\"applicable_days\"\":96"
41bd2134-96d2-479f-8c3f-eb6f98a769eb,0.7941176470588235,41bd2134-96d2-479f-8c3f-eb6f98a769eb,Shell Sylt Trift 7,Shell,Trift,7,25980,Sylt,54.904569,8.310836,2014-03-18T16:45:31.000+01:00,"\"{\"\"openingTimes\"\":[{\"\"applicable_days\"\":255"
c73fa27f-764e-44c3-9e2d-73d6faa8ae84,0.8787878787878788,c73fa27f-764e-44c3-9e2d-73d6faa8ae84,Shell Ratingen Speestr.,Shell,Speestr.,,40885,Ratingen,51.336911,6.83471,2014-03-18T16:45:31.000+01:00,"\"{\"\"overrides\"\":[{\"\"startp\"\":\"\"2024-12-31 06:00\"\""
88dfaaf1-fad6-465a-924e-d675b3b11c23,0.9545454545454546,88dfaaf1-fad6-465a-924e-d675b3b11c23,Shell Puchheim Eichenauer Str. 35,Shell,Eichenauer Str.,35,82178,Puchheim,48.157986,11.334668,2014-03-18T16:45:31.000+01:00,{}
45701dbf-0bc9-4f05-b45b-9a4a87b095f9,0.711864406779661,45701dbf-0bc9-4f05-b45b-9a4a87b095f9,MTB Tankstelle,MTB,Göppinger Straße,7,73119,Zell unter Aichelberg,48.6519249,9.5722607,2014-03-18T16:45:31.000+01:00,{}
5435878b-9905-49da-8408-76c3cccb4826,0.7878787878787878,5435878b-9905-49da-8408-76c3cccb4826,Aral Tankstelle,ARAL,Nördlinger Straße,72,89520,Heidenheim,48.690636,10.165861,2014-03-18T16:45:31.000+01:00,{}
5de4ac1e-69d6-4dd7-b5cf-eed0208f8214,0.7741935483870968,5de4ac1e-69d6-4dd7-b5cf-eed0208f8214,Aral Tankstelle,ARAL,Münchener Straße,16,85540,Haar,48.10854,11.722106,2014-03-18T16:45:31.000+01:00,{}
e707bd23-1806-420a-9909-b14c1e221775,0.8666666666666667,e707bd23-1806-420a-9909-b14c1e221775,Aral Tankstelle,ARAL,Kirchheimer Straße,51-53,67269,Grünstadt,49.559288,8.170279,2014-03-18T16:45:31.000+01:00,"\"{\"\"openingTimes\"\":[{\"\"applicable_days\"\":96"
447319e8-5c2e-4525-95c0-34350b347c8e,0.8260869565217391,447319e8-5c2e-4525-95c0-34350b347c8e,DEGGENDORF - DETTER STRASSE 1A,AGIP ENI,Detter Strasse,1A,94469,Deggendorf,48.8385923,12.9511385,2014-03-20T00:00:01.000+01:00,"\"{\"\"openingTimes\"\":[{\"\"applicable_days\"\":31"
e1a15081-261c-9107-e040-0b0a3dfe563c,0.66,e1a15081-261c-9107-e040-0b0a3dfe563c,"Köthen, Prosigker Kreisstr. / B183",HEM,Prosigker Kreisstr. / B,183,06366,Köthen,51.74157,11.99935,2014-03-18T16:45:31.000+01:00,"\"{\"\"openingTimes\"\":[{\"\"applicable_days\"\":31"
c94c910f-2766-4ea6-9d0c-6213a77860be,0.7666666666666667,c94c910f-2766-4ea6-9d0c-6213a77860be,"Marktsteft, Marktbreiter Str. 65",HEM,Marktbreiter Str.,65,97342,Marktsteft,49.68643,10.14395,2014-12-11T00:00:01.000+01:00,"\"{\"\"openingTimes\"\":[{\"\"applicable_days\"\":63"
0050569a-edd1-1eed-8e96-631b1b585775,0.8125,0050569a-edd1-1eed-8e96-631b1b585775,"Zwickau, Oskar-Arnold-Str.",HEM,Oskar-Arnold-Straße,4,08056,Zwickau,50.7079688,12.5006556,2022-09-23T16:01:18.000+02:00,"\"{\"\"openingTimes\"\":[{\"\"applicable_days\"\":63"
a0298d29-fb0e-466f-a8e3-e1e33d45c216,1.0,a0298d29-fb0e-466f-a8e3-e1e33d45c216,AVIA XPress,AVIA XPress,Unteriglinger Straße,49,86859,Igling,48.078511987642,10.813799475684,2016-11-05T00:00:01.000+01:00,{}
59e9eed1-2e4d-4f64-bb5d-a192f8dbfa97,0.8846153846153846,59e9eed1-2e4d-4f64-bb5d-a192f8dbfa97,OIL! Tankstelle Unna,OIL!,Hansastraße 67,,59425,Unna,51.5417,7.67695,2015-06-30T00:00:01.000+02:00,"\"{\"\"openingTimes\"\":[{\"\"applicable_days\"\":192"
32032dbe-acbd-4694-8f7b-6ec9f748c9d6,0.7619047619047619,32032dbe-acbd-4694-8f7b-6ec9f748c9d6,AVIA Tankstelle,AVIA,Kemptener Straße,49,88178,Heimenkirch,47.62703,9.911002,2014-03-18T16:45:31.000+01:00,{}
651f445a-acf9-6f19-e100-00000630df04,0.6666666666666666,651f445a-acf9-6f19-e100-00000630df04,ENI,AGIP ENI,Walsleben Ost / An der A24,,16818,Walsleben,52.950381,12.662744,2018-03-21T23:30:07.000+01:00,{}
005056ba-7cb6-1ed2-bceb-c7a02f350d53,0.7142857142857143,005056ba-7cb6-1ed2-bceb-c7a02f350d53,star Tankstelle,STAR,Bahnhofstraße,64,09376,Oelsnitz,50.72954,12.697075,2014-03-18T16:45:31.000+01:00,"\"{\"\"openingTimes\"\":[{\"\"applicable_days\"\":63"
d9dc4f1a-f294-45d1-a618-1a7cc97dd483,0.7619047619047619,d9dc4f1a-f294-45d1-a618-1a7cc97dd483,AVIA Tankstelle,AVIA,Hönnetalstraße,50,58710,Menden,51.4025,7.841206,2015-12-25T00:00:01.000+01:00,{}
06627310-9949-487e-acd8-7aa12f9c4deb,0.5,06627310-9949-487e-acd8-7aa12f9c4deb,AVIA Tankstelle,AVIA,Im Doorgrund,2,26160,Bad Zwischenahn,53.17013,7.99864,2014-03-18T16:45:31.000+01:00,{}
005056ba-7cb6-1ed2-bceb-6992942d0d20,0.875,005056ba-7cb6-1ed2-bceb-6992942d0d20,ORLEN Tankstelle,ORLEN,Bahnhofsallee,38,23909,Ratzeburg,53.69902,10.742159,2014-03-18T16:45:31.000+01:00,"\"{\"\"overrides\"\":[{\"\"startp\"\":\"\"2024-12-31 05:00\"\""
657be8ae-7538-4530-97ad-6b1274391e35,0.9285714285714286,657be8ae-7538-4530-97ad-6b1274391e35,Esso Tankstelle,ESSO,FREIBURGER STR. 83,"",21682,STADE,53.61218,9.481591,2014-03-18T16:45:31.000+01:00,"\"{\"\"openingTimes\"\":[{\"\"applicable_days\"\":31"
73f39eb5-19de-4ee8-877f-557f2ac5f899,0.9230769230769231,73f39eb5-19de-4ee8-877f-557f2ac5f899,Esso Tankstelle,ESSO,AM MASTWEG 25,"",18356,BARTH,54.361358,12.711953,2014-03-18T16:45:31.000+01:00,"\"{\"\"openingTimes\"\":[{\"\"applicable_days\"\":127"
dfcd38b3-602f-4d88-bb2f-f169c7176ea6,0.625,dfcd38b3-602f-4d88-bb2f-f169c7176ea6,Esso Tankstelle,ESSO,GEBERSDORFER STR. 29,"",90449,NUERNBERG,49.419667,11.018116,2014-03-18T16:45:31.000+01:00,"\"{\"\"openingTimes\"\":[{\"\"applicable_days\"\":31"
a05ea76a-1f53-47ce-bda7-6730a5c9bbef,0.725,a05ea76a-1f53-47ce-bda7-6730a5c9bbef,Esso Tankstelle,ESSO,DARMSTAEDTER STR. 15,"",64832,BABENHAUSEN,49.955383,8.953011,2014-03-18T16:45:31.000+01:00,"\"{\"\"openingTimes\"\":[{\"\"applicable_days\"\":31"
739d86f2-83c4-4829-8b6a-e1b05d9415e2,0.9,739d86f2-83c4-4829-8b6a-e1b05d9415e2,Esso Tankstelle,ESSO,BAHNHOFSTR. 21,"",83471,BERCHTESGADEN,47.63011244,13.00394508,2014-03-18T16:45:31.000+01:00,"\"{\"\"openingTimes\"\":[{\"\"applicable_days\"\":63"
45317f68-3d4c-46a4-a90e-2a6d33d2ceec,0.723404255319149,45317f68-3d4c-46a4-a90e-2a6d33d2ceec,Esso Tankstelle,ESSO,KLEINE HAINSTR. 4,"",63450,HANAU,50.138068,8.913194,2014-03-18T16:45:31.000+01:00,"\"{\"\"openingTimes\"\":[{\"\"applicable_days\"\":127"
b72d02b5-2567-4722-9177-572bf53544d9,0.9,b72d02b5-2567-4722-9177-572bf53544d9,TopTank Tankstelle,TopTank,EGESTORFER STR. 22,"",30890,BARSINGHAUSEN,52.297602,9.475794,2014-03-18T16:45:31.000+01:00,"\"{\"\"openingTimes\"\":[{\"\"applicable_days\"\":63"
9f595e70-9c89-4a6d-b4b9-9ea6e122c92a,0.7575757575757576,9f595e70-9c89-4a6d-b4b9-9ea6e122c92a,Freie Tankstelle Robert Greil,TS - GREIL IFFELDORF,Seeshaupter Straße,10,82393,Iffeldorf,47.785583,11.327599,2014-03-18T16:45:31.000+01:00,"\"{\"\"overrides\"\":[{\"\"startp\"\":\"\"2024-12-31 06:00\"\""
f5a439e7-4956-4000-8e23-02ff9f2fa305,0.9,f5a439e7-4956-4000-8e23-02ff9f2fa305,Sb Ronneburg Friedrichstr. 7,SB,Friedrichstr.,7,07580,Ronneburg,50.8617,12.1846,2014-09-06T00:00:01.000+02:00,"\"{\"\"openingTimes\"\":[{\"\"applicable_days\"\":192"
51d4b436-a095-1aa0-e100-80009459e03a,0.7142857142857143,51d4b436-a095-1aa0-e100-80009459e03a,Supermarkt-Tankstelle SAARBRUECKEN - DUDWEILER CAMPHAUSER STR. 4,Supermarkt-Tankstelle,CAMPHAUSER STR.,4,66125,SAARBRUECKEN - DUDWEILER,49.28756,7.02637,2014-03-18T16:45:31.000+01:00,"\"{\"\"openingTimes\"\":[{\"\"applicable_days\"\":31"
51d4b69f-a095-1aa0-e100-80009459e03a,0.8076923076923077,51d4b69f-a095-1aa0-e100-80009459e03a,Supermarkt-Tankstelle LUDWIGSHAFEN OGGERSHEIM ODERSTR. 2,Supermarkt-Tankstelle,ODERSTR.,2,67071,LUDWIGSHAFEN OGGERSHEIM,49.48872,8.35119,2014-03-18T16:45:31.000+01:00,"\"{\"\"openingTimes\"\":[{\"\"applicable_days\"\":31"
52d87455-b7d6-46e7-bbc8-5b35bfdf6584,0.8518518518518519,52d87455-b7d6-46e7-bbc8-5b35bfdf6584,Sprint Oppach Bautzner Str.,Sprint,Bautzner Str.,9,02763,Oppach,51.061726,14.498745,2014-03-18T16:45:31.000+01:00,"\"{\"\"openingTimes\"\":[{\"\"applicable_days\"\":31"
005056ba-7cb6-1ed2-bced-a63862a48e50,0.8095238095238095,005056ba-7cb6-1ed2-bced-a63862a48e50,star Tankstelle,STAR,Dresdner Straße,15,01773,Altenberg,50.764237,13.757474,2014-03-18T16:45:31.000+01:00,"\"{\"\"openingTimes\"\":[{\"\"applicable_days\"\":31"
51d4b4e1-a095-1aa0-e100-80009459e03a,0.5306122448979592,51d4b4e1-a095-1aa0-e100-80009459e03a,JET SOLINGEN WUPPERTALER STRASSE 133,JET,WUPPERTALER STRASSE,133,42653,SOLINGEN,51.20101,7.07335,2014-03-18T16:45:31.000+01:00,"\"{\"\"openingTimes\"\":[{\"\"applicable_days\"\":63"
51d4b5a1-a095-1aa0-e100-80009459e03a,0.7931034482758621,51d4b5a1-a095-1aa0-e100-80009459e03a,JET GIESSEN SCHIFFENBERGERWEG 105,JET,SCHIFFENBERGERWEG,105,35394,GIESSEN,50.57282,8.68867,2014-03-18T16:45:31.000+01:00,"\"{\"\"openingTimes\"\":[{\"\"applicable_days\"\":31"
51d4b706-a095-1aa0-e100-80009459e03a,0.85,51d4b706-a095-1aa0-e100-80009459e03a,JET WILLICH HANNS-MARTIN-SCHLEYER-STR. 2,JET,HANNS-MARTIN-SCHLEYER-STR.,2,47877,WILLICH,51.27235,6.50993,2014-03-18T16:45:31.000+01:00,"\"{\"\"openingTimes\"\":[{\"\"applicable_days\"\":31"
ef12caa4-e3af-4c98-a881-9d09a84e7849,0.9473684210526315,ef12caa4-e3af-4c98-a881-9d09a84e7849,Sprint Dresden Strasse des 17. Juni Nr.,Sprint,Strasse des 17. Juni Nr.,11,01257,Dresden,51.00642,13.819887,2014-03-18T16:45:31.000+01:00,{}
d101a123-77d3-4da6-bb94-19c42400ac29,0.96,d101a123-77d3-4da6-bb94-19c42400ac29,AH Lehrte,TOTAL,Straßburger Str.,4,31275,Lehrte,52.3851967,9.952576,2019-12-06T12:01:13.000+01:00,{}
4a5e76bd-e0bd-4b30-a70b-84a6dfece345,0.8076923076923077,4a5e76bd-e0bd-4b30-a70b-84a6dfece345,ALLGUTH GmbH c/o Süleyman Mete,ALLGUTH,Münchener Str.,173,85051,Ingolstadt,48.73523,11.43851,2014-03-18T16:45:31.000+01:00,"\"{\"\"openingTimes\"\":[{\"\"applicable_days\"\":127"
705a0ad1-58fd-4f90-b50c-462c6f4d7373,0.918918918918919,705a0ad1-58fd-4f90-b50c-462c6f4d7373,Markenfreie TS Kleinblittersdorf,Markenfreie TS,Konrad-Adenauer-Str.,29,66271,Kleinblittersdorf,49.117912,7.062908,2014-03-18T16:45:31.000+01:00,"\"{\"\"openingTimes\"\":[{\"\"applicable_days\"\":31"
8fb9abf4-87c8-4c10-b8f7-4673fda60cc5,1.0,8fb9abf4-87c8-4c10-b8f7-4673fda60cc5,TotalEnergies Burgau,TotalEnergies,Augsburger Str.,29,89331,Burgau,48.4256,10.41385,2014-03-18T16:45:31.000+01:00,"\"{\"\"openingTimes\"\":[{\"\"applicable_days\"\":63"
d9012bf8-6ea0-47a0-9f43-efae8238b623,0.5714285714285714,d9012bf8-6ea0-47a0-9f43-efae8238b623,AVIA Tankstelle,AVIA,Hauptstraße,15,26904,Börger,52.91295,7.538298,2014-03-18T16:45:31.000+01:00,{}
73fdb4de-97b7-4c19-a175-3d66b48e3303,0.7647058823529411,73fdb4de-97b7-4c19-a175-3d66b48e3303,Walther Automatenstation,Walther Automatenstation,Ziegelhüttener Str.,8,95326,Kulmbach,50.1225,11.4388,2014-05-16T00:00:01.000+02:00,{}
94625600-7172-46f3-bf36-8f27cdcb87cc,0.75,94625600-7172-46f3-bf36-8f27cdcb87cc,Walther Tankstelle,bft - Walther,Kalkofen,7,95119,Naila,50.3167,11.6862,2014-05-16T00:00:01.000+02:00,{}
9aab1ae8-c032-4834-bee4-bb0227ec4e3f,1.0,9aab1ae8-c032-4834-bee4-bb0227ec4e3f,Shell Eisenberg Alfred-Nobel-Str. 2a,Shell,Alfred-Nobel-Str.,2a,67304,Eisenberg,49.563581,8.081615,2014-03-18T16:45:31.000+01:00,"\"{\"\"openingTimes\"\":[{\"\"applicable_days\"\":224"
07a543ee-7e3c-4620-a03d-fe60d0d3ba71,0.9285714285714286,07a543ee-7e3c-4620-a03d-fe60d0d3ba71,Shell Rastatt Kehlerstr. 25- 27,Shell,Kehlerstr.,25- 27,76437,Rastatt,48.849425,8.203841,2014-03-18T16:45:31.000+01:00,"\"{\"\"overrides\"\":[{\"\"startp\"\":\"\"2024-12-31 22:00\"\""
0bd8cab5-4853-442d-a6a6-7f66aa6ade23,0.8888888888888888,0bd8cab5-4853-442d-a6a6-7f66aa6ade23,Shell Wuestenrot Loewensteiner Straße 29,Shell,Loewensteiner Straße,29,71543,Wuestenrot,49.085156,9.461845,2014-03-18T16:45:31.000+01:00,{}
1e856ac3-76f5-402c-803f-f05f2d577de3,0.7619047619047619,1e856ac3-76f5-402c-803f-f05f2d577de3,Shell Chemnitz Jagdschänkenstr. 17,Shell,Jagdschänkenstr.,17,09117,Chemnitz,50.81284,12.841695,2014-03-18T16:45:31.000+01:00,"\"{\"\"openingTimes\"\":[{\"\"applicable_days\"\":224"
4153c6bc-a820-4f87-8909-59e287f38995,1.0,4153c6bc-a820-4f87-8909-59e287f38995,SVG Tankstelle Hamburg,SVG,Bullerdeich,36,20537,Hamburg,53.543998718262,10.038999557495,2023-02-21T10:01:19.000+01:00,{}
0d206f86-308b-43ae-a157-b7e625bdf61b,0.8260869565217391,0d206f86-308b-43ae-a157-b7e625bdf61b,Aral Tankstelle,ARAL,Haid-und-Neu-Straße,60,76131,Karlsruhe,49.01521,8.435365,2014-03-18T16:45:31.000+01:00,{}
b300b5d7-426a-49b1-886d-78b997f2bea3,0.8620689655172413,b300b5d7-426a-49b1-886d-78b997f2bea3,Aral Tankstelle,ARAL,Moselstraße / B,416,56330,Kobern-Gondorf,50.314255,7.462393,2014-03-18T16:45:31.000+01:00,"\"{\"\"openingTimes\"\":[{\"\"applicable_days\"\":64"
4c256dc7-5995-4f7f-9b14-5eb222067462,0.8620689655172413,4c256dc7-5995-4f7f-9b14-5eb222067462,Aral Tankstelle,ARAL,Isarstraße,3,85356,Freising,48.397457,11.75929,2014-03-18T16:45:31.000+01:00,"\"{\"\"openingTimes\"\":[{\"\"applicable_days\"\":127"
abcec35a-2582-4f71-b54b-5fdfd5f6ce62,0.84375,abcec35a-2582-4f71-b54b-5fdfd5f6ce62,Aral Tankstelle,ARAL,Olvenstedter Graseweg,,39128,Magdeburg,52.15664,11.588091,2014-03-18T16:45:31.000+01:00,{}
4c3ce577-f3db-428c-b5ff-d544c8e8349d,0.8709677419354839,4c3ce577-f3db-428c-b5ff-d544c8e8349d,Aral Tankstelle,ARAL,Norfer Straße,54,41468,Neuss,51.174274,6.737947,2014-03-18T16:45:31.000+01:00,"\"{\"\"openingTimes\"\":[{\"\"applicable_days\"\":96"
9ea1b621-8932-4b5c-9003-8302360d9392,1.0,9ea1b621-8932-4b5c-9003-8302360d9392,Giovanni Brucculeri,Esso,Heidenaeckerstr.,36,69207,Sandhausen,49.3511,8.6587,2016-04-18T00:00:01.000+02:00,"\"{\"\"openingTimes\"\":[{\"\"applicable_days\"\":63"
e2e3c679-ab66-4c50-9345-d64086779773,0.8846153846153846,e2e3c679-ab66-4c50-9345-d64086779773,Esso Station,ESSO,Brucker Str. 16,"",93149,Nittenau,49.202119,12.28006,2014-03-18T16:45:31.000+01:00,{}
bbbd8a3d-5e93-4ba3-6592-489aa2e6aa14,0.6785714285714286,bbbd8a3d-5e93-4ba3-6592-489aa2e6aa14,CleanCar AG NL116,CleanCar,Charlottenburger Chaussee,51 - 55,13597,Berlin,52.527451,13.232763,2014-03-18T16:45:31.000+01:00,"\"{\"\"openingTimes\"\":[{\"\"applicable_days\"\":64"
51d4b5ee-a095-1aa0-e100-80009459e03a,0.7692307692307693,51d4b5ee-a095-1aa0-e100-80009459e03a,JET BREMEN OSTERHOLZER HEERSTRASSE 149,JET,OSTERHOLZER HEERSTRASSE,149,28307,BREMEN,53.05778,8.94633,2014-03-18T16:45:31.000+01:00,"\"{\"\"openingTimes\"\":[{\"\"applicable_days\"\":31"
b1206658-5b6d-4415-930d-ad923d4a1e39,0.75,b1206658-5b6d-4415-930d-ad923d4a1e39,tankpoint Tankstelle,tankpoint,Carl-Zeiss-Straße,2,74078,Heilbronn-Kirchhausen,49.180612546727,9.13135742931,2017-06-15T23:30:06.000+02:00,"\"{\"\"openingTimes\"\":[{\"\"applicable_days\"\":31"
de2d3e46-facc-40dc-9b81-f1a22cbeab62,0.75,de2d3e46-facc-40dc-9b81-f1a22cbeab62,Supermarkt Frankfurt/Oder,Supermarkt,Josef-Gesing-Str.,6,15234,Frankfurt/Oder,52.350041,14.519935,2014-03-18T16:45:31.000+01:00,"\"{\"\"openingTimes\"\":[{\"\"applicable_days\"\":63"
f92dbc00-135b-491e-a321-f969231142fc,1.0,f92dbc00-135b-491e-a321-f969231142fc,Die Tankstelle,,Berliner Str.,73,02943,Weisswasser,51.506530761719,14.626600265503,2014-03-18T16:45:31.000+01:00,"\"{\"\"openingTimes\"\":[{\"\"applicable_days\"\":63"
32f1203f-716f-4629-b855-404aa69d9953,0.75,32f1203f-716f-4629-b855-404aa69d9953,Freie Tankstelle,,Weinstr.,18,67273,Herxheim am Berg,49.5090011,8.179677,2019-05-08T23:30:07.000+02:00,{}
341c0b37-d4be-48d0-9f38-19a983694505,0.7941176470588235,341c0b37-d4be-48d0-9f38-19a983694505,RAN Station,RAN,Münchner Str.,28,85354,Freising,48.3876,11.7368,2014-03-18T16:45:31.000+01:00,{}
910350b2-d6e2-4549-b53e-af11743c088e,0.8048780487804879,910350b2-d6e2-4549-b53e-af11743c088e,Fricke,AVIA,Briloner Str.,29,59909,Bestwig,51.3688,8.42264,2014-03-18T16:45:31.000+01:00,{}
e78d9b82-d883-40d2-9625-26c5567f9110,0.6470588235294118,e78d9b82-d883-40d2-9625-26c5567f9110,Elan Eckental,ELAN,Dr. Otto-Leich-Str,,90542,Eckental,49.580278,11.198249,2014-03-18T16:45:31.000+01:00,{}
7087c91e-4171-4999-b509-ac2a07a5a94b,1.0,7087c91e-4171-4999-b509-ac2a07a5a94b,NEUSTADT/AISCH,AGIP ENI,Riedfelder Ortsstrasse,2A,91413,Neustadt a. d. Aisch,49.582198938018,10.597295187579,2014-03-20T00:00:01.000+01:00,"\"{\"\"openingTimes\"\":[{\"\"applicable_days\"\":31"
086f78e0-6137-4a3d-977b-f31ffdf433c9,0.8518518518518519,086f78e0-6137-4a3d-977b-f31ffdf433c9,Raiffeisen Waren GmbH,Raiffeisen,Peiner Straße,2,38176,Wendeburg,52.32824,10.39367,2014-03-18T16:45:31.000+01:00,{}
c600cd2b-a4d1-4b5c-a029-438f9beccb0b,0.7804878048780488,c600cd2b-a4d1-4b5c-a029-438f9beccb0b,Bft Bielefeld Kurt Schumacher Straße 30,bft,Kurt Schumacher Straße,30,33615,Bielefeld,52.03426,8.50683,2014-03-18T16:45:31.000+01:00,"\"{\"\"openingTimes\"\":[{\"\"applicable_days\"\":192"
6ad1b67f-f405-48f7-98db-ca4d2f72437b,0.8285714285714286,6ad1b67f-f405-48f7-98db-ca4d2f72437b,OIL! Tankstelle Uslar,OIL!,Alleestr. 2,,37170,Uslar,51.6575,9.63416,2014-03-18T16:45:31.000+01:00,{}
0d04596e-aa4b-44d9-9059-f55beddb0e0b,0.7428571428571429,0d04596e-aa4b-44d9-9059-f55beddb0e0b,AVEX Bachem,AVEX,Gleueler Str.,19,50226,Frechen,50.8974,6.82103,2014-03-18T16:45:31.000+01:00,"\"{\"\"openingTimes\"\":[{\"\"applicable_days\"\":31"
5c506321-2599-4447-81dd-531864067c2e,0.9090909090909091,5c506321-2599-4447-81dd-531864067c2e,Shell Dueren Aachener Str. 44,Shell,Aachener Str.,44,52349,Dueren,50.797563,6.476753,2014-03-18T16:45:31.000+01:00,"\"{\"\"openingTimes\"\":[{\"\"applicable_days\"\":192"
b32884a9-6948-4567-9859-33ea379242c6,0.675,b32884a9-6948-4567-9859-33ea379242c6,Shell Solingen Beethovenstr. 39-49,Shell,Beethovenstr.,39-49,42655,Solingen,51.176209,7.069557,2014-03-18T16:45:31.000+01:00,"\"{\"\"overrides\"\":[{\"\"startp\"\":\"\"2025-01-01 07:30\"\""
06197610-892b-4e64-a203-9a0252f4e539,0.9032258064516129,06197610-892b-4e64-a203-9a0252f4e539,Shell Bad Freienwalde (Oder) Wriezener Str. 51,Shell,Wriezener Str.,51,16259,Bad Freienwalde (Oder),52.778386,14.048568,2014-03-18T16:45:31.000+01:00,"\"{\"\"openingTimes\"\":[{\"\"applicable_days\"\":31"
5e75d82d-e3cb-4c78-a893-55907553e2d7,1.0,5e75d82d-e3cb-4c78-a893-55907553e2d7,"Aral Tankstelle, BAT Lipperland Süd",ARAL,A,2,33719,Bielefeld,52.00996,8.629997,2014-03-18T16:45:31.000+01:00,{}
49ca7bb5-bd6d-4acb-9a93-affbe10af1e8,1.0,49ca7bb5-bd6d-4acb-9a93-affbe10af1e8,"Aral Tankstelle, BAT RHYNERN NORD",ARAL,A,2/Ostendorfstraße 60,59069,Hamm,51.632313,7.873946,2014-03-18T16:45:31.000+01:00,{}
0c058d81-4933-4aff-8965-e366a156c744,1.0,0c058d81-4933-4aff-8965-e366a156c744,"Aral Tankstelle, BAT WÜRZBURG NORD",ARAL,A,3 /Am Katzenberg,97084,Würzburg,49.75467,9.961424,2014-03-18T16:45:31.000+01:00,{}
08386c5e-29e9-4e40-ab34-ea2107e8eddf,0.8518518518518519,08386c5e-29e9-4e40-ab34-ea2107e8eddf,Aral Tankstelle,ARAL,Amsinckstraße,48,20097,Hamburg,53.545967,10.015121,2014-03-18T16:45:31.000+01:00,{}
9bdc3748-a7ea-4b57-80e1-e22f138bc2b0,0.9117647058823529,9bdc3748-a7ea-4b57-80e1-e22f138bc2b0,Aral Tankstelle,ARAL,Waldstraße,48-56,68305,Mannheim,49.52823,8.489984,2014-03-18T16:45:31.000+01:00,"\"{\"\"openingTimes\"\":[{\"\"applicable_days\"\":64"
748b6d98-64f6-4030-86c7-26887a915eb3,0.9,748b6d98-64f6-4030-86c7-26887a915eb3,Aral Tankstelle,ARAL,Münchener Straße,300 / It,40589,Düsseldorf,51.169052,6.822734,2014-03-18T16:45:31.000+01:00,{}
0b78a46e-4cb8-4054-961f-74889d86816a,0.7857142857142857,0b78a46e-4cb8-4054-961f-74889d86816a,Aral Tankstelle,ARAL,Bahnhofstraße,30,88427,Bad Schussenried,48.00025,9.660136,2014-03-18T16:45:31.000+01:00,"\"{\"\"openingTimes\"\":[{\"\"applicable_days\"\":64"
1ad87726-d69e-4a58-8844-5cfcb0cf67d9,0.8076923076923077,1ad87726-d69e-4a58-8844-5cfcb0cf67d9,Shell Niedergebra Halle-Kasseler-Str. 262,Shell,Halle-Kasseler-Str.,262,99759,Niedergebra,51.422763,10.606541,2014-03-18T16:45:31.000+01:00,"\"{\"\"openingTimes\"\":[{\"\"applicable_days\"\":192"
c342f7c1-3301-4a62-8e5c-cc5a43be95ab,0.6666666666666666,c342f7c1-3301-4a62-8e5c-cc5a43be95ab,Shell Bordesholm Kieler Str. 37-39,Shell,Kieler Str.,37-39,24582,Bordesholm,54.176561,10.026086,2014-03-18T16:45:31.000+01:00,"\"{\"\"overrides\"\":[{\"\"startp\"\":\"\"2024-12-31 06:00\"\""
bc12e6ec-2ad3-40e2-907c-f7f68a5e4192,1.0,bc12e6ec-2ad3-40e2-907c-f7f68a5e4192,Shell Limburg A.D. Lahn A3 Limburg Ost,Shell,A3 Limburg Ost,,65549,Limburg A.D. Lahn,50.394706,8.07802,2014-03-18T16:45:31.000+01:00,{}
5ef34f0d-eb2a-4340-8347-4e67da2e174e,0.8387096774193549,5ef34f0d-eb2a-4340-8347-4e67da2e174e,TotalEnergies Grevenbroich,TotalEnergies,Jaegerhof,10,41516,Grevenbroich,51.121755,6.666714,2014-03-18T16:45:31.000+01:00,"\"{\"\"openingTimes\"\":[{\"\"applicable_days\"\":31"
e1a15081-2515-9107-e040-0b0a3dfe563c,0.7352941176470589,e1a15081-2515-9107-e040-0b0a3dfe563c,"Meyenburg, Pritzwalker Str. 30c",HEM,Pritzwalker Str. c,30,16945,Meyenburg,53.305432,12.235293,2014-03-18T16:45:31.000+01:00,"\"{\"\"openingTimes\"\":[{\"\"applicable_days\"\":31"
f68b6d37-ba7f-4565-bfe4-968893af61ba,0.5625,f68b6d37-ba7f-4565-bfe4-968893af61ba,bft Tankstelle,bft,Carl-Spaeter-Straße,73,56070,Koblenz,50.3916,7.58622,2014-03-18T16:45:31.000+01:00,{}
1bd1428b-8330-4ea1-8760-24991686f809,0.7,1bd1428b-8330-4ea1-8760-24991686f809,AVIA XPress,AVIA XPress,Werthbornstraße,60,63654,Büdingen,50.33359,9.20039,2019-11-26T00:01:13.000+01:00,{}
5570844d-f41f-42bd-9ddd-2b966e413ff4,0.8055555555555556,5570844d-f41f-42bd-9ddd-2b966e413ff4,VR-Bank in Südniedersachsen eG,Raiffeisen,Sollingstraße,31,37586,Dassel-Lauenberg,51.76753,9.75909,2014-11-12T00:00:01.000+01:00,{}
8e02ebbe-8481-4840-8053-94d38031cd0f,1.0,8e02ebbe-8481-4840-8053-94d38031cd0f,AVIA Truck,AVIA Truck,Hans-Martin-Schleyer-Straße,26,41199,Mönchengladbach,51.11525,6.44483,2019-07-03T23:30:07.000+02:00,{}
e88898b1-2148-4935-970a-f2788031fbc1,0.9666666666666667,e88898b1-2148-4935-970a-f2788031fbc1,OIL! tank &amp; go Automatentankstelle Duisburg,OIL! (Automatenstation),Mercatorstraße 158,,47051,Duisburg,51.4265,6.76889,2014-03-18T16:45:31.000+01:00,{}
8a03e576-e8da-4bb3-b5a6-9db702c56e31,0.8,8a03e576-e8da-4bb3-b5a6-9db702c56e31,ENI,AGIP ENI,FRANKENHÖHE NORD,,91589,Aurach,49.242518,10.354518,2014-03-20T00:00:01.000+01:00,{}
005056ba-7cb6-1ed2-bceb-8dae91c48d33,0.6444444444444445,005056ba-7cb6-1ed2-bceb-8dae91c48d33,star Tankstelle,STAR,Schwanebecker Chaussee,13,16321,Bernau,52.670352,13.583753,2014-03-18T16:45:31.000+01:00,"\"{\"\"openingTimes\"\":[{\"\"applicable_days\"\":127"
7814b72a-2e49-41a4-b956-1e647bf06b9f,1.0,7814b72a-2e49-41a4-b956-1e647bf06b9f,HIRSCHBERG - AN DER A 9,AGIP ENI,An Der A,9,07927,Hirschberg,50.430218727929,11.798814301434,2014-03-20T00:00:01.000+01:00,{}
34d264ad-4bb8-42a9-83fb-51ce29794517,0.7555555555555555,34d264ad-4bb8-42a9-83fb-51ce29794517,Esso Station,ESSO,Brettergartenstr. 76,"",90427,Nürnberg,49.470454,11.026133,2014-03-18T16:45:31.000+01:00,"\"{\"\"openingTimes\"\":[{\"\"applicable_days\"\":31"
a5ce31a7-a216-4c49-b5c8-d10f6955d8d3,0.875,a5ce31a7-a216-4c49-b5c8-d10f6955d8d3,Esso Station,ESSO,Landsberger Str. 43,"",86179,Augsburg,48.311287,10.906839,2014-03-18T16:45:31.000+01:00,"\"{\"\"openingTimes\"\":[{\"\"applicable_days\"\":63"
864b6079-5d19-4461-ad59-28c94303bc3d,0.6521739130434783,864b6079-5d19-4461-ad59-28c94303bc3d,Esso Station,ESSO,Hindenburgring 40,"",61348,Bad Homburg vor der Höhe,50.227319,8.60531,2014-03-18T16:45:31.000+01:00,"\"{\"\"openingTimes\"\":[{\"\"applicable_days\"\":31"
37dd3327-1a04-444f-9630-a985beaf083e,0.8,37dd3327-1a04-444f-9630-a985beaf083e,STOPP Tk Rodewisch,Freie Tankstelle,August-Bebel-Str.,4,08228,Rodewisch,50.523603,12.395451,2014-03-18T16:45:31.000+01:00,"\"{\"\"openingTimes\"\":[{\"\"applicable_days\"\":31"
1406a943-413f-4186-9174-4f808f487fe9,0.8888888888888888,1406a943-413f-4186-9174-4f808f487fe9,AVIA Tankstelle,AVIA,Hauptstraße,10,92266,Ensdorf,49.34029,11.93571,2014-03-18T16:45:31.000+01:00,"\"{\"\"openingTimes\"\":[{\"\"applicable_days\"\":127"
5095976b-494a-4ed1-b7ab-8939391865ba,0.7297297297297297,5095976b-494a-4ed1-b7ab-8939391865ba,West-Tank Essen Frintroper Str. 462,West-Tank,Frintroper Str.,462,45359,Essen,51.4764,6.91089,2014-03-18T16:45:31.000+01:00,"\"{\"\"openingTimes\"\":[{\"\"applicable_days\"\":224"
1cf17a0c-0091-4ea4-a12d-3ccf944c1947,0.7777777777777778,1cf17a0c-0091-4ea4-a12d-3ccf944c1947,Bavaria Petrol,Bavaria Petrol,Unterhachinger Straße,28a,85521,Ottobrunn,48.063145,11.652012,2014-03-18T16:45:31.000+01:00,"\"{\"\"openingTimes\"\":[{\"\"applicable_days\"\":64"
8c2148f2-41e0-4efd-8e6d-9862a5ba1e03,0.7941176470588235,8c2148f2-41e0-4efd-8e6d-9862a5ba1e03,AVIA Tankstelle,AVIA,Detmolder Straße,41,33161,Hövelhof,51.84121,8.611686,2014-03-18T16:45:31.000+01:00,"\"{\"\"openingTimes\"\":[{\"\"applicable_days\"\":63"
51d4b6b8-a095-1aa0-e100-80009459e03a,0.9230769230769231,51d4b6b8-a095-1aa0-e100-80009459e03a,Supermarkt-Tankstelle LANDSHUT ALTE REGENSBURGER STR. 21,Supermarkt-Tankstelle,ALTE REGENSBURGER STR.,21,84030,LANDSHUT,48.55184,12.16183,2014-03-18T16:45:31.000+01:00,"\"{\"\"openingTimes\"\":[{\"\"applicable_days\"\":63"
51d4b4db-a095-1aa0-e100-80009459e03a,0.8928571428571429,51d4b4db-a095-1aa0-e100-80009459e03a,JET TAUBERBISCHOFSHEIM MERGENTHEIMER STRASSE 10,JET,MERGENTHEIMER STRASSE,10,97941,TAUBERBISCHOFSHEIM,49.62233,9.66823,2014-03-18T16:45:31.000+01:00,"\"{\"\"openingTimes\"\":[{\"\"applicable_days\"\":31"
51d4b5be-a095-1aa0-e100-80009459e03a,0.9666666666666667,51d4b5be-a095-1aa0-e100-80009459e03a,JET TUTTLINGEN BAHNHOFSTR. 72,JET,BAHNHOFSTR.,72,78532,TUTTLINGEN,47.98261,8.80833,2014-03-18T16:45:31.000+01:00,"\"{\"\"openingTimes\"\":[{\"\"applicable_days\"\":31"
1d142699-6302-4d99-a7f6-182d8bf93fe8,0.7222222222222222,1d142699-6302-4d99-a7f6-182d8bf93fe8,CLASSIC Weyhe - Kirchweyhe,CLASSIC,Kirchweyher Str.,4,28844,Weyhe,52.9879,8.87077,2014-03-18T16:45:31.000+01:00,"\"{\"\"overrides\"\":[{\"\"startp\"\":\"\"2024-12-31 06:00\"\""
5a593302-07c8-4197-b41e-fb249565312c,0.6,5a593302-07c8-4197-b41e-fb249565312c,Tankcenter Pinneberg,Tankcenter,Elmshorner Str.,143-147,25421,Pinneberg,53.674799,9.793537,2014-03-18T16:45:31.000+01:00,"\"{\"\"openingTimes\"\":[{\"\"applicable_days\"\":31"
642b1fad-e55a-419a-a736-9c083dcea84b,0.7096774193548387,642b1fad-e55a-419a-a736-9c083dcea84b,TotalEnergies Bochum,TotalEnergies,Kemnader Str.,315,44797,Bochum,51.428481,7.242503,2014-03-18T16:45:31.000+01:00,"\"{\"\"openingTimes\"\":[{\"\"applicable_days\"\":31"
00060336-0001-4444-8888-acdc00000001,0.75,00060336-0001-4444-8888-acdc00000001,Tankstelle Jung Gladenbach,Jung,Herborner Str.,27,35075,Erdhausen/Gladenbach,50.751369476318,8.5523986816406,2014-08-22T00:00:01.000+02:00,{}
4722644f-699b-4fbb-b388-6847b2cc659f,1.0,4722644f-699b-4fbb-b388-6847b2cc659f,AVIA Tankstelle,AVIA,Selingstädter Straße,1,91180,Heideck,49.1324,11.13114,2014-03-18T16:45:31.000+01:00,"\"{\"\"overrides\"\":[{\"\"startp\"\":\"\"2024-12-30 06:00\"\""
d7a5aea4-da8a-4d44-8e8f-92adb13f5436,0.3333333333333333,d7a5aea4-da8a-4d44-8e8f-92adb13f5436,Walther Tankstelle,bft - Walther,Bad Liebensteiner Str.,185,36456,Barchfeld,50.802,10.3161,2014-05-16T00:00:01.000+02:00,{}
e16e41b5-2f92-4d94-91c3-e97ddb71d279,1.0,e16e41b5-2f92-4d94-91c3-e97ddb71d279,Helftaer Mineralölhandel Kölleda,AS Mineralöle,Pappelweg,1,99625,Kölleda,51.18404,11.20202,2019-11-07T20:01:13.000+01:00,{}
1b22929d-580d-4a33-95ba-9889e3381ff1,0.6481481481481481,1b22929d-580d-4a33-95ba-9889e3381ff1,Shell Remscheid Vieringhausen 18-20,Shell,Vieringhausen,18-20,42857,Remscheid,51.179044,7.167975,2014-03-18T16:45:31.000+01:00,{}
dce7361a-9c83-472b-9e6b-0f2af980b06c,0.9,dce7361a-9c83-472b-9e6b-0f2af980b06c,Shell Nuernberg Aeussere Sulzbacher Str. 156,Shell,Aeussere Sulzbacher Str.,156,90491,Nuernberg,49.465583,11.122514,2014-03-18T16:45:31.000+01:00,"\"{\"\"openingTimes\"\":[{\"\"applicable_days\"\":192"
b427b33e-8b74-4cda-9faa-acb72c6b2e68,0.8709677419354839,b427b33e-8b74-4cda-9faa-acb72c6b2e68,Shell Meinerzhagen Oststr. 29,Shell,Oststr.,29,58540,Meinerzhagen,51.106691,7.653138,2014-03-18T16:45:31.000+01:00,"\"{\"\"openingTimes\"\":[{\"\"applicable_days\"\":192"
99b019c9-0d90-4229-955d-2f32dc5b6310,0.7727272727272727,99b019c9-0d90-4229-955d-2f32dc5b6310,Shell Koeln Roesrather Str. 724,Shell,Roesrather Str.,724,51107,Koeln,50.920611,7.093345,2014-03-18T16:45:31.000+01:00,"\"{\"\"openingTimes\"\":[{\"\"applicable_days\"\":255"
bd51301e-7078-4af4-aafa-a4a7c9e4e30d,0.9565217391304348,bd51301e-7078-4af4-aafa-a4a7c9e4e30d,Aral Tankstelle,ARAL,Paderborner Straße,22,33161,Hövelhof,51.818752,8.659243,2014-03-18T16:45:31.000+01:00,"\"{\"\"openingTimes\"\":[{\"\"applicable_days\"\":64"
3a1d204e-42b2-4315-8ff4-a8d4ecbe065a,0.7096774193548387,3a1d204e-42b2-4315-8ff4-a8d4ecbe065a,Aral Tankstelle,ARAL,Heerstraße,88,53894,Mechernich,50.588352,6.647133,2014-03-18T16:45:31.000+01:00,"\"{\"\"openingTimes\"\":[{\"\"applicable_days\"\":64"
754ea764-cd61-4528-a200-28b432087b2e,0.7714285714285715,754ea764-cd61-4528-a200-28b432087b2e,Aral Tankstelle,ARAL,Nürnberger Straße,44,91781,Weißenburg,49.038826,10.970908,2014-03-18T16:45:31.000+01:00,{}
88c9c0be-2c05-4e20-b910-9dde4fefff9b,0.7241379310344828,88c9c0be-2c05-4e20-b910-9dde4fefff9b,Aral Tankstelle,ARAL,Am Heerweg,33,07768,Kahla,50.809307,11.577449,2014-03-18T16:45:31.000+01:00,"\"{\"\"openingTimes\"\":[{\"\"applicable_days\"\":96"
039240b8-3dc2-4c7a-be1d-cd673479f090,0.9130434782608695,039240b8-3dc2-4c7a-be1d-cd673479f090,Aral Tankstelle,ARAL,Bahnhofstraße,8,97633,Saal,50.317463,10.352696,2014-03-18T16:45:31.000+01:00,"\"{\"\"openingTimes\"\":[{\"\"applicable_days\"\":127"
f457f6d2-1d6f-4b25-811d-91a8b79a34d0,0.8333333333333334,f457f6d2-1d6f-4b25-811d-91a8b79a34d0,Aziz Oezdemir,ED,Binger Landstraße,16,55606,Kirn,49.789429,7.481856,2014-03-18T16:45:31.000+01:00,"\"{\"\"overrides\"\":[{\"\"startp\"\":\"\"2024-12-31 07:00\"\""
876a5ce1-a80a-4a46-b651-6ef348a83e15,0.8,876a5ce1-a80a-4a46-b651-6ef348a83e15,Esso Tankstelle,ESSO,BÜHLERTALSTR. 30,"",74523,SCHWAEBISCH HALL,49.109357,9.768502,2014-03-18T16:45:31.000+01:00,"\"{\"\"openingTimes\"\":[{\"\"applicable_days\"\":31"
e88fcbca-b6b0-4ce5-8f61-944c130ea485,0.8928571428571429,e88fcbca-b6b0-4ce5-8f61-944c130ea485,bft - Tankstelle Glashütte,BFT,Altenbergerstr.,43,01768,Glashütte,50.84288,13.77245,2014-03-18T16:45:31.000+01:00,{}
452e079f-a2ff-4f78-b3f7-2cd94228301b,1.0,452e079f-a2ff-4f78-b3f7-2cd94228301b,AVIA Tankstelle,AVIA,Bannholz Str.,31,94065,Waldkirchen,48.7321634,13.6085267,2022-07-29T00:01:18.000+02:00,"\"{\"\"openingTimes\"\":[{\"\"applicable_days\"\":63"
5bc5d2ba-ff0c-4e49-9e57-fad9afcde83b,0.6666666666666666,5bc5d2ba-ff0c-4e49-9e57-fad9afcde83b,"Jork, Westerjork 21",HEM,Westerjork,21,21635,Jork,53.533398,9.677517,2015-10-02T00:00:01.000+02:00,"\"{\"\"openingTimes\"\":[{\"\"applicable_days\"\":127"
35529319-e19c-41ef-83da-d9dcdfb02704,0.7073170731707317,35529319-e19c-41ef-83da-d9dcdfb02704,Markttankstelle,Tankstelle,Wittrockstraße,3,34121,Kassel,51.3116,9.4643,2014-03-18T16:45:31.000+01:00,"\"{\"\"overrides\"\":[{\"\"startp\"\":\"\"2024-12-31 06:00\"\""
f6390e4f-850d-4096-b95a-9e1ca773c6b5,0.9,f6390e4f-850d-4096-b95a-9e1ca773c6b5,Storz Heiztechnik,Storz Heiztechnik,Waldmössinger Str.,2,78733,Aichhalden,48.268161773682,8.4028844833374,2014-03-18T16:45:31.000+01:00,{}
67a0b319-e115-4740-a08a-d46bf3523b2c,0.7741935483870968,67a0b319-e115-4740-a08a-d46bf3523b2c,Salzgitter,Jantzon Tankstelle,Wildkamp,117,38226,Salzgitter-Lebenst.,52.173247,10.329852,2014-03-18T16:45:31.000+01:00,"\"{\"\"overrides\"\":[{\"\"startp\"\":\"\"2024-12-31 08:00\"\""
c1bf5aca-f9d0-4cd6-9ad7-bfc7f3830c12,0.8823529411764706,c1bf5aca-f9d0-4cd6-9ad7-bfc7f3830c12,AVIA XPress,AVIA XPress,Riedenstraße,1,74635,Kupferzell,49.22469,9.688442,2014-03-18T16:45:31.000+01:00,{}
8e6ff792-a0fb-49d3-98aa-e388ca33dcb4,0.9090909090909091,8e6ff792-a0fb-49d3-98aa-e388ca33dcb4,TotalEnergies Stolpe Nord,TotalEnergies,BAB A24 Stolpe Nord,,19372,Stolpe,53.367647,11.73191,2014-03-18T16:45:31.000+01:00,{}
77673dec-317d-4820-8419-b898ec843a3d,1.0,77673dec-317d-4820-8419-b898ec843a3d,V-Markt Füssen,V-Markt,Kemptener Str.,107,87629,Füssen,47.56864,10.67112,2014-03-18T16:45:31.000+01:00,{}
22d3f644-fa21-4ed6-ae1f-3547d8cd9227,0.5957446808510638,22d3f644-fa21-4ed6-ae1f-3547d8cd9227,TotalEnergies Potsdam,TotalEnergies,Pirschheide,1,14471,Potsdam,52.3753,13.008198,2014-03-18T16:45:31.000+01:00,{}
c4810f97-ed90-4be9-a054-4b6b51e1c221,0.8095238095238095,c4810f97-ed90-4be9-a054-4b6b51e1c221,Tankstelle Am Prüfgelände,"Am Prüfgelände, Tankstelle",Carl-Benz-Straße,2,26871,Papenburg,53.05108,7.48946,2016-06-01T00:00:01.000+02:00,{}
005056a9-4231-1edc-bb90-f3804b59c4fc,0.8333333333333334,005056a9-4231-1edc-bb90-f3804b59c4fc,ENI,AGIP ENI,Aggertal Süd,,51491,Overath,50.950648,7.319647,2023-03-21T16:01:18.000+01:00,{}
4efdc29a-939d-442a-999d-895c8d3c43d8,0.7837837837837838,4efdc29a-939d-442a-999d-895c8d3c43d8,OIL! Tankstelle Rheinberg,OIL!,Römerstraße 2,,47495,Rheinberg,51.5397,6.58814,2014-03-18T16:45:31.000+01:00,"\"{\"\"openingTimes\"\":[{\"\"applicable_days\"\":192"
3ad4d65d-18ae-4ea1-a78e-eaa6e63e114b,0.9166666666666666,3ad4d65d-18ae-4ea1-a78e-eaa6e63e114b,OIL! Tankstelle Lübbecke-Nettelstedt,OIL!,Ravensberger Straße 25,,32312,Lübbecke-Nettelstedt,52.3019,8.69604,2014-03-18T16:45:31.000+01:00,"\"{\"\"openingTimes\"\":[{\"\"applicable_days\"\":192"
c2b088b5-3165-4d0f-b52c-d74411abf4ac,0.8085106382978723,c2b088b5-3165-4d0f-b52c-d74411abf4ac,Tankstelle am Marktkauf,Marktkauf,Steinbeisstr.,10-12,73054,Eislingen,48.695195,9.687928,2014-03-18T16:45:31.000+01:00,{}
183ddd8a-20c7-4376-a462-79a3e2bbd94f,0.813953488372093,183ddd8a-20c7-4376-a462-79a3e2bbd94f,Shell Frankfurt Am Main Pfaffenwiese 133,Shell,Pfaffenwiese,133,65931,Frankfurt Am Main,50.097129,8.511531,2014-03-18T16:45:31.000+01:00,"\"{\"\"openingTimes\"\":[{\"\"applicable_days\"\":192"
5649313e-a2cc-4d2b-a842-778a63f132de,0.7105263157894737,5649313e-a2cc-4d2b-a842-778a63f132de,Shell Nidderau Eugen-Kaiser-Str. 42,Shell,Eugen-Kaiser-Str.,42,61130,Nidderau,50.221119,8.875466,2014-03-18T16:45:31.000+01:00,"\"{\"\"openingTimes\"\":[{\"\"applicable_days\"\":224"
25f2f2d2-8e47-4b82-9b28-2d504d3665cb,0.7027027027027027,25f2f2d2-8e47-4b82-9b28-2d504d3665cb,Shell Duisburg Moerser Str. 121,Shell,Moerser Str.,121,47198,Duisburg,51.449345,6.701674,2014-03-18T16:45:31.000+01:00,{}
c1cb3a06-ea33-471b-a151-37eba5b29597,0.8292682926829268,c1cb3a06-ea33-471b-a151-37eba5b29597,Shell Berlin Prinzenallee 20,Shell,Prinzenallee,20,13357,Berlin,52.555243,13.38423,2014-03-18T16:45:31.000+01:00,"\"{\"\"openingTimes\"\":[{\"\"applicable_days\"\":224"
2a6cfba4-3da5-42ea-9297-138f918fa137,0.8235294117647058,2a6cfba4-3da5-42ea-9297-138f918fa137,Shell Hueckeswagen Peterstr. 73,Shell,Peterstr.,73,42499,Hueckeswagen,51.14447,7.35093,2014-03-18T16:45:31.000+01:00,"\"{\"\"overrides\"\":[{\"\"startp\"\":\"\"2024-12-31 23:00\"\""
5c92a807-5513-4dfa-96b2-a192e5499d0f,0.6511627906976745,5c92a807-5513-4dfa-96b2-a192e5499d0f,Aral Tankstelle,ARAL,Schlagbaumer Straße,66,42653,Solingen,51.18508,7.079738,2014-03-18T16:45:31.000+01:00,{}
33176ca8-c3f8-4fb9-a5c4-f9f9b4e32319,0.8048780487804879,33176ca8-c3f8-4fb9-a5c4-f9f9b4e32319,Aral Tankstelle,ARAL,Am Europakanal,26,91056,Erlangen,49.59296,10.97005,2014-03-18T16:45:31.000+01:00,{}
ba7ec994-b800-41bf-a4f9-272999d5e7eb,0.8387096774193549,ba7ec994-b800-41bf-a4f9-272999d5e7eb,Aral Tankstelle,ARAL,Am Heidfuchsberg,1,39443,Staßfurt / OT Brumby,51.89647,11.691975,2017-09-08T23:30:06.000+02:00,{}
551db894-900d-44f7-905b-a470b7d69f46,0.825,551db894-900d-44f7-905b-a470b7d69f46,Aral Tankstelle,ARAL,Hanauer Straße,64,63739,Aschaffenburg,49.980453,9.132444,2014-03-18T16:45:31.000+01:00,{}
68ceb09a-2872-4c18-a223-bba9dbb91694,0.8387096774193549,68ceb09a-2872-4c18-a223-bba9dbb91694,Aral Tankstelle,ARAL,Preußenstraße,49,44532,Lünen,51.592754,7.548283,2014-03-18T16:45:31.000+01:00,"\"{\"\"openingTimes\"\":[{\"\"applicable_days\"\":64"
abab6851-1278-431f-9d32-121572816947,0.9047619047619048,abab6851-1278-431f-9d32-121572816947,TotalEnergies Gaertringen,TotalEnergies,Boeblinger Str.,6,71116,Gaertringen,48.638912,8.909811,2014-03-18T16:45:31.000+01:00,"\"{\"\"openingTimes\"\":[{\"\"applicable_days\"\":31"
bb023dce-fb7b-4e35-ac3a-92dea3c38611,0.775,bb023dce-fb7b-4e35-ac3a-92dea3c38611,TotalEnergies Goerlitz,TotalEnergies,Bahnhofstr.,68-72,02826,Goerlitz,51.146099,14.983898,2014-03-18T16:45:31.000+01:00,"\"{\"\"openingTimes\"\":[{\"\"applicable_days\"\":31"
00afbec7-551c-456c-a15d-21b055274012,0.8235294117647058,00afbec7-551c-456c-a15d-21b055274012,ROTTENBURG-TUEBINGER STR.,AGIP ENI,Tuebinger Str.,26,72108,Rottenburg,48.47332,8.93871,2014-03-20T00:00:01.000+01:00,{}
e1a15081-2534-9107-e040-0b0a3dfe563c,0.45,e1a15081-2534-9107-e040-0b0a3dfe563c,"Panketal, Dorfstr. 1a",HEM,Dorfstr. a,1,16341,Panketal,52.620937,13.542302,2014-03-18T16:45:31.000+01:00,"\"{\"\"openingTimes\"\":[{\"\"applicable_days\"\":31"
25160e6e-02de-4e1e-8e77-7037890fa163,1.0,25160e6e-02de-4e1e-8e77-7037890fa163,Globus Handelshof St. Wendel GmbH & Co. KG Betriebsstätte St. Wendel,Globus SB Warenhaus,Dortmunder Str.,1,66606,St Wendel,49.468439,7.138747,2014-03-18T16:45:31.000+01:00,{}
e1a15081-25c9-9107-e040-0b0a3dfe563c,0.5217391304347826,e1a15081-25c9-9107-e040-0b0a3dfe563c,"Hamburg, Luruper Hauptstr. 70",HEM,Luruper Hauptstr.,70,22547,Hamburg,53.586234,9.878846,2014-03-18T16:45:31.000+01:00,"\"{\"\"openingTimes\"\":[{\"\"applicable_days\"\":79"
885b5b6b-2cdb-46a0-b700-54658a9e3307,0.875,885b5b6b-2cdb-46a0-b700-54658a9e3307,OIL! Tankstelle Blieskastel,OIL!,Saargemünderstraße 16,,66440,Blieskastel,49.2356,7.25529,2014-03-18T16:45:31.000+01:00,"\"{\"\"openingTimes\"\":[{\"\"applicable_days\"\":224"
18fa8d48-a5b1-494f-b5fb-57a499538cbd,0.5588235294117647,18fa8d48-a5b1-494f-b5fb-57a499538cbd,bft-Tankstelle  Autohaus Roth,BFT,Freudenstaedterstr.,75,72275,Alpirsbach,48.3474,8.41186,2014-03-18T16:45:31.000+01:00,{}
f380ffdd-547f-4db6-bcc5-324eeda30ffc,0.7619047619047619,f380ffdd-547f-4db6-bcc5-324eeda30ffc,AVIA Tankstelle,AVIA,Hauptstrasse,21,93333,Neustadt/Schwaig,48.76911,11.70621,2016-07-27T00:00:01.000+02:00,{}
acf0c07f-1c5b-4c1f-99e3-57d502dda01f,0.9,acf0c07f-1c5b-4c1f-99e3-57d502dda01f,Bft Weissenburg Augsburger Straße 18,bft,Augsburger Straße,18,91781,Weissenburg,49.02491,10.966925,2014-03-18T16:45:31.000+01:00,"\"{\"\"openingTimes\"\":[{\"\"applicable_days\"\":192"
96e5a45f-f0a7-4718-b1d8-ef6b5a160a57,0.8837209302325582,96e5a45f-f0a7-4718-b1d8-ef6b5a160a57,Esso Tankstelle,ESSO,SCHOENFELDER STR. 44,"",34121,KASSEL,51.307513,9.468551,2014-03-18T16:45:31.000+01:00,"\"{\"\"openingTimes\"\":[{\"\"applicable_days\"\":31"
8bb0cf4e-738e-49b1-bc23-82a8103783aa,0.6,8bb0cf4e-738e-49b1-bc23-82a8103783aa,Access Parchim,Access,Westring,40,19370,Parchim,53.427507,11.827283,2014-03-18T16:45:31.000+01:00,"\"{\"\"openingTimes\"\":[{\"\"applicable_days\"\":31"
33d43a63-5589-4ee6-88b5-7d5093751fe5,0.9166666666666666,33d43a63-5589-4ee6-88b5-7d5093751fe5,Raisa eG,Raiffeisen,Hohe Luft,15,21698,Bargstedt,53.46148,9.425917,2014-03-18T16:45:31.000+01:00,{}
f2d09453-761f-44a8-a075-ad3c6b405486,0.7083333333333334,f2d09453-761f-44a8-a075-ad3c6b405486,Sb Aachen Lütticher Straße 575,SB,Lütticher Straße,575,52074,Aachen,50.735741,6.046083,2014-03-18T16:45:31.000+01:00,"\"{\"\"openingTimes\"\":[{\"\"applicable_days\"\":224"
00c6dc89-4575-4dc7-a63e-8cff8e8a274e,0.7777777777777778,00c6dc89-4575-4dc7-a63e-8cff8e8a274e,PIN Service-Station,PIN Service-Station,Bahnhofstraße,104,86381,Krumbach,48.251785,10.356684,2014-03-18T16:45:31.000+01:00,"\"{\"\"openingTimes\"\":[{\"\"applicable_days\"\":64"
906dde53-94dc-452a-aae8-39551fc5bffc,0.5344827586206896,906dde53-94dc-452a-aae8-39551fc5bffc,Tankstelle Groß,Tankstelle,Mühlenanger,3,37627,Stadtoldendorf,51.8873,9.62678,2014-03-18T16:45:31.000+01:00,"\"{\"\"overrides\"\":[{\"\"startp\"\":\"\"2024-12-31 07:00\"\""
bad7014a-c05a-4140-84e9-d8db683b71cb,0.9545454545454546,bad7014a-c05a-4140-84e9-d8db683b71cb,OIL! Tankstelle Lingen,OIL!,Josefstraße 29,,49809,Lingen,52.5264,7.34288,2014-03-18T16:45:31.000+01:00,"\"{\"\"openingTimes\"\":[{\"\"applicable_days\"\":192"
24a97844-50e8-4927-99a1-c561e6604637,0.8095238095238095,24a97844-50e8-4927-99a1-c561e6604637,Raiffeisen Energie Nord GmbH,Raiffeisen,Haupstr.,6a,23896,Nusse,53.65835,10.578536,2014-03-18T16:45:31.000+01:00,{}
005056a9-779e-1eee-bfc4-26f2ed85158d,0.7380952380952381,005056a9-779e-1eee-bfc4-26f2ed85158d,ORLEN Tankstelle,ORLEN,Berliner Chaussee,117,39114,Magdeburg,52.131432,11.68336,2024-05-07T22:52:38.000+02:00,"\"{\"\"overrides\"\":[{\"\"startp\"\":\"\"2024-12-31 07:00\"\""
51d4b6a8-a095-1aa0-e100-80009459e03a,0.6333333333333333,51d4b6a8-a095-1aa0-e100-80009459e03a,JET OBERHONNEFELD WESTERWALDSTR. 23,JET,WESTERWALDSTR.,23,56587,OBERHONNEFELD,50.56214,7.52672,2014-03-18T16:45:31.000+01:00,{}
e1a15081-25d0-9107-e040-0b0a3dfe563c,0.6666666666666666,e1a15081-25d0-9107-e040-0b0a3dfe563c,"Aerzen, Reherweg 27",HEM,Reherweg,27,31855,Aerzen,52.043854,9.259746,2014-03-18T16:45:31.000+01:00,"\"{\"\"openingTimes\"\":[{\"\"applicable_days\"\":31"
728dc1d7-a6d8-4623-81fb-012307ae14e3,0.7441860465116279,728dc1d7-a6d8-4623-81fb-012307ae14e3,Raiffeisen Westfalen Mitte eG,Raiffeisen,Overweg,23,59494,Soest,51.5563,8.1457,2021-04-26T20:01:15.000+02:00,{}
e6784edc-03e4-49e9-b356-370782cee305,0.9523809523809523,e6784edc-03e4-49e9-b356-370782cee305,TotalEnergies Emsdetten,TotalEnergies,Taubenstr.,40,48282,Emsdetten,52.164898,7.50944,2014-03-18T16:45:31.000+01:00,"\"{\"\"openingTimes\"\":[{\"\"applicable_days\"\":31"
67aa1bed-8865-46ff-8390-4affa3a4fad0,1.0,67aa1bed-8865-46ff-8390-4affa3a4fad0,UBSTADT-WEIHER - STETTFELDER STR.,AGIP ENI,Stettfelder Str.,56,76698,Ubstadt-Weiher,49.163811035286,8.634579434177,2014-03-20T00:00:01.000+01:00,"\"{\"\"openingTimes\"\":[{\"\"applicable_days\"\":31"
0d59105f-f3f5-4dce-bb9e-584fcd8fc0b2,0.8571428571428571,0d59105f-f3f5-4dce-bb9e-584fcd8fc0b2,BFT Bremen Vahrer,BFT,Vahrer Straße,156,28309,Bremen,53.065886,8.888143,2014-03-18T16:45:31.000+01:00,{}
31b07001-437a-4ee7-b654-676c559e00d2,0.7777777777777778,31b07001-437a-4ee7-b654-676c559e00d2,Raiffeisen Warengenossenschaft Ammerland-OstFriesland eG,Raiffeisen,Raiffeisendamm,4,26683,Scharrel,53.06846,7.708578,2014-03-18T16:45:31.000+01:00,{}
83f7645d-4a2e-4c63-96da-3897a8a9bd94,0.8571428571428571,83f7645d-4a2e-4c63-96da-3897a8a9bd94,Daxlanden,BFT,Daxlander Strasse,70 a,76185,Karlsruhe,49.007587,8.344674,2014-03-18T16:45:31.000+01:00,"\"{\"\"overrides\"\":[{\"\"startp\"\":\"\"2024-12-31 07:00\"\""
d042965a-c52b-4fa8-a6c0-bbde94ea6c69,0.896551724137931,d042965a-c52b-4fa8-a6c0-bbde94ea6c69,Knies+Lagotka Kartentankstelle,Knies+Lagotka,Poststr.,5,35114,Haina,51.026611328125,8.9722299575806,2018-11-16T23:30:07.000+01:00,{}
c917cdc1-0e9e-408c-bfc0-cf520c586e2a,0.875,c917cdc1-0e9e-408c-bfc0-cf520c586e2a,Shell Brilon Möhnestr. 50,Shell,Möhnestr.,50,59929,Brilon,51.406363,8.575004,2014-03-18T16:45:31.000+01:00,"\"{\"\"openingTimes\"\":[{\"\"applicable_days\"\":192"
20011e79-aebd-4445-9b2a-027c80c82cc8,0.75,20011e79-aebd-4445-9b2a-027c80c82cc8,Aral Tankstelle,ARAL,Frankfurter Straße,52-54,61476,Kronberg,50.173923,8.523387,2014-03-18T16:45:31.000+01:00,"\"{\"\"openingTimes\"\":[{\"\"applicable_days\"\":64"
4fea53fd-fe07-4fca-b1c6-56cffa6fd3a1,0.9629629629629629,4fea53fd-fe07-4fca-b1c6-56cffa6fd3a1,Aral Tankstelle,ARAL,Nordring,107,33330,Gütersloh,51.91278,8.366754,2014-03-18T16:45:31.000+01:00,{}
8b2505b3-7eff-446f-8d86-e6be21d05b8a,0.9411764705882353,8b2505b3-7eff-446f-8d86-e6be21d05b8a,Aral Tankstelle,ARAL,Brielower Landstraße,17,14772,Brandenburg,52.4303,12.553348,2014-03-18T16:45:31.000+01:00,{}
bf2c17e7-5ce8-4ed4-8c86-d3af09e18ef5,0.7692307692307693,bf2c17e7-5ce8-4ed4-8c86-d3af09e18ef5,Aral Tankstelle,ARAL,Kurfuerstendamm,128,10711,Berlin,52.495804,13.287605,2014-03-18T16:45:31.000+01:00,{}
18de0a63-b132-467d-a629-37a5d62ba50d,0.8205128205128205,18de0a63-b132-467d-a629-37a5d62ba50d,Aral Tankstelle,ARAL,Göteborger Straße,12 a,06686,Lützen,51.251736,12.137886,2014-03-18T16:45:31.000+01:00,{}
f580dd50-7f3d-494a-9c03-239804d4115c,0.7692307692307693,f580dd50-7f3d-494a-9c03-239804d4115c,TAP Brueggen Kaldenkirchener Str.52,TAP,Kaldenkirchener Str.,52,41379,Brueggen,51.288904,6.196127,2021-08-31T02:01:18.000+02:00,"\"{\"\"openingTimes\"\":[{\"\"applicable_days\"\":192"
f7d3898c-7111-47fb-b207-d5f016cee44e,0.7142857142857143,f7d3898c-7111-47fb-b207-d5f016cee44e,Tankstelle Framke,BFT,In Steppach,3,78647,Trossingen,48.07538,8.62537,2014-03-18T16:45:31.000+01:00,{}
d9e14ebb-23b5-449e-bbf3-e4c198e4061b,0.8571428571428571,d9e14ebb-23b5-449e-bbf3-e4c198e4061b,Stefan Bublies,ED,Aachener Straße,15,56072,Koblenz-Rübenach,50.372574,7.528644,2014-03-18T16:45:31.000+01:00,"\"{\"\"overrides\"\":[{\"\"startp\"\":\"\"2024-12-31 07:00\"\""
9b9e42cf-49be-4ae2-ab13-2efaf36dda51,0.8048780487804879,9b9e42cf-49be-4ae2-ab13-2efaf36dda51,Esso Station,ESSO,Hofmark-Aich-Str. 22,"",84030,Landshut,48.548382,12.147233,2014-03-18T16:45:31.000+01:00,{}
aea76107-92ea-47ea-99ac-4c7fa1491fe8,0.90625,aea76107-92ea-47ea-99ac-4c7fa1491fe8,ENI,ENI,Münchener Str.,20,83620,Feldkirchen-Westerham,47.9104,11.8398,2014-03-18T16:45:31.000+01:00,"\"{\"\"openingTimes\"\":[{\"\"applicable_days\"\":63"
f7287700-e9b8-45c1-a146-3c45320fa392,0.8095238095238095,f7287700-e9b8-45c1-a146-3c45320fa392,AVIA Tankstelle,AVIA,Stuttgarter Str.,16,72622,Nürtingen,48.6328457,9.32902502,2022-07-23T00:01:22.000+02:00,"\"{\"\"overrides\"\":[{\"\"startp\"\":\"\"2024-12-31 06:00\"\""
9bfb50cb-827e-4812-8e0f-b145758438ca,0.9047619047619048,9bfb50cb-827e-4812-8e0f-b145758438ca,Aral Tankstelle,ARAL,Berliner Allee / B,2,16303,Schwedt,53.046314,14.265841,2014-03-18T16:45:31.000+01:00,"\"{\"\"openingTimes\"\":[{\"\"applicable_days\"\":96"
94666a50-d397-464e-a85f-64c9e0bb0521,0.9,94666a50-d397-464e-a85f-64c9e0bb0521,TotalEnergies Autohof Leuna,TotalEnergies Autohof,Baeumchen,15,06667,Weissenfels,51.268721,11.978313,2014-03-18T16:45:31.000+01:00,{}
9901b8e6-c755-46bd-8856-ac47e45bbbaa,0.71875,9901b8e6-c755-46bd-8856-ac47e45bbbaa,TotalEnergies Autohof Guenzburg,TotalEnergies Autohof,Wilhelm-Maybach-Str.,5,89312,Günzburg,48.427552,10.288246,2014-03-18T16:45:31.000+01:00,{}
e2667870-c052-44db-a9ba-7ab63b679ccc,0.967741935483871,e2667870-c052-44db-a9ba-7ab63b679ccc,TotalEnergies Dueren,TotalEnergies,Neue Juelicher Str.,45,52353,Dueren,50.812335,6.474528,2014-03-18T16:45:31.000+01:00,{}
3c07d058-64b4-4232-bf42-22dd8c6abade,1.0,3c07d058-64b4-4232-bf42-22dd8c6abade,MTB-Schwäb.Gmünd,MTB / Tank-Netz,Lorcher Str.,108,73529,Schwäbisch Gmünd,48.795879,9.777788,2015-06-28T00:00:01.000+02:00,"\"{\"\"openingTimes\"\":[{\"\"applicable_days\"\":127"
52f4a226-c1b3-4edf-a86d-3095eb693662,1.0,52f4a226-c1b3-4edf-a86d-3095eb693662,Shell Bad Camberg A3 Bad Camberg West,Shell,A3 Bad Camberg West,,65520,Bad Camberg,50.301362,8.2348,2014-03-18T16:45:31.000+01:00,{}
83c2dd6b-3aa4-430b-8573-21f83bc163e3,0.875,83c2dd6b-3aa4-430b-8573-21f83bc163e3,Shell Kehrig A48 Elztal Nord,Shell,A48 Elztal Nord,,56729,Kehrig,50.26743,7.226569,2023-07-12T10:01:17.000+02:00,{}
aa842438-c80d-46c1-828f-2cadb756d001,0.8518518518518519,aa842438-c80d-46c1-828f-2cadb756d001,Tankstelle Gießen-Europastraße,Roth- Energie,Europastr.,5,35394,Gießen,50.57249,8.72659,2014-05-16T00:00:01.000+02:00,{}
2500b32e-97d7-4b8e-a51f-b15c9d4ae170,0.6470588235294118,2500b32e-97d7-4b8e-a51f-b15c9d4ae170,OIL! Tankstelle Trappenkamp,OIL!,Kieler Str. 12,,24610,Trappenkamp,54.0376,10.2224,2014-03-18T16:45:31.000+01:00,"\"{\"\"openingTimes\"\":[{\"\"applicable_days\"\":192"
236b1bde-bf3b-42b5-b8f5-3020286881bc,1.0,236b1bde-bf3b-42b5-b8f5-3020286881bc,AVEX Frechen Tankautomat,AVEX,Bonnstr.,17,50226,Frechen,50.9112,6.83014,2014-03-18T16:45:31.000+01:00,{}
b06df483-13ee-41fb-84f5-bef5c896bb51,1.0,b06df483-13ee-41fb-84f5-bef5c896bb51,Raiffeisen Handels- und Vermittlungsgesellschaft mbH Eichenzell,Raiffeisen,Salzgitter Str.,28,34225,Baunatal,51.24859,9.451444,2023-01-13T20:01:26.000+01:00,{}
f0da3729-cbb9-4c40-acdd-b4fcabb139b3,0.8,f0da3729-cbb9-4c40-acdd-b4fcabb139b3,AVIA XPress,AVIA XPress,Neustraße,20,41334,Nettetal,51.330513046821,6.2784655979704,2014-06-26T00:00:01.000+02:00,"\"{\"\"openingTimes\"\":[{\"\"applicable_days\"\":127"
20d23bb7-03a4-4be5-1c4e-e8224e737bb0,0.6226415094339622,20d23bb7-03a4-4be5-1c4e-e8224e737bb0,Marienhafe,SCORE,Burgstr.,50 B,26529,Marienhafe,53.528498,7.27033,2014-03-18T16:45:31.000+01:00,"\"{\"\"openingTimes\"\":[{\"\"applicable_days\"\":32"
3d5d33e1-982e-4bd9-831c-7710f4b2bd72,0.6666666666666666,3d5d33e1-982e-4bd9-831c-7710f4b2bd72,team Tankstelle Magdeburg,team,Berliner Chaussee,96,39114,Magdeburg,52.13014,11.6786,2023-05-22T16:01:18.000+02:00,{}
78b533b2-531e-4fa4-9101-9ac7fe205f10,0.639344262295082,78b533b2-531e-4fa4-9101-9ac7fe205f10,bft Rösrath,bft,Kölner Str.,47,51503,Rösrath,50.8971,7.1702,2015-08-04T00:00:01.000+02:00,"\"{\"\"overrides\"\":[{\"\"startp\"\":\"\"2025-01-01 07:00\"\""
725c4c2d-d015-40b0-a26d-cc6a3277235b,0.7222222222222222,725c4c2d-d015-40b0-a26d-cc6a3277235b,Aral Tankstelle,ARAL,Mainzer Straße,95,65428,Rüsselsheim,49.993164,8.38713,2014-03-18T16:45:31.000+01:00,{}
b6bb2207-2de9-4e94-95a1-c77d87b7ab01,0.7428571428571429,b6bb2207-2de9-4e94-95a1-c77d87b7ab01,Aral Tankstelle,ARAL,Venloer Straße,39,50259,Pulheim,50.995373,6.810329,2014-03-18T16:45:31.000+01:00,{}
2df506c3-d113-441d-8eb5-fbf09288a007,0.90625,2df506c3-d113-441d-8eb5-fbf09288a007,Aral Tankstelle,ARAL,Neusser Straße,856,50737,Köln,50.9932,6.94057,2014-03-18T16:45:31.000+01:00,{}
db482d9a-3154-4886-90c9-5ddc26ff49aa,0.78125,db482d9a-3154-4886-90c9-5ddc26ff49aa,Aral Tankstelle,ARAL,Untere Hauptstraße,11,85386,Eching,48.29818,11.625084,2014-03-18T16:45:31.000+01:00,{}
f0b98c8f-a1a3-4de2-9b9b-28ee6893025a,0.95,f0b98c8f-a1a3-4de2-9b9b-28ee6893025a,Aral Tankstelle,ARAL,Balinger Straße,26,78727,Oberndorf,48.300167,8.611752,2014-03-18T16:45:31.000+01:00,"\"{\"\"openingTimes\"\":[{\"\"applicable_days\"\":64"
ca944555-1ee4-4228-979d-8313690ae950,0.78125,ca944555-1ee4-4228-979d-8313690ae950,Aral Tankstelle,ARAL,Reutlinger Straße,72,72072,Tübingen,48.51295,9.073625,2014-03-18T16:45:31.000+01:00,{}
ce086ad4-a63f-4ece-bf9e-69fd42629031,0.7142857142857143,ce086ad4-a63f-4ece-bf9e-69fd42629031,Shell Northeim Goettinger Str. 57,Shell,Goettinger Str.,57,37154,Northeim,51.696545,9.990917,2014-03-18T16:45:31.000+01:00,"\"{\"\"overrides\"\":[{\"\"startp\"\":\"\"2025-01-01 08:00\"\""
e7c34b96-36d3-497d-96cf-1439e023e7ab,0.7777777777777778,e7c34b96-36d3-497d-96cf-1439e023e7ab,BFT Struckum Hauptstrasse 51,BFT,Hauptstrasse,51,25821,Struckum,54.589363,8.99396,2023-03-03T16:01:18.000+01:00,"\"{\"\"openingTimes\"\":[{\"\"applicable_days\"\":192"
e1a15081-254f-9107-e040-0b0a3dfe563c,0.6842105263157895,e1a15081-254f-9107-e040-0b0a3dfe563c,"Wedel, Rissener Str. 100",HEM,Rissener Str.,100,22880,Wedel,53.583615,9.724348,2014-03-18T16:45:31.000+01:00,"\"{\"\"openingTimes\"\":[{\"\"applicable_days\"\":127"
e1a15081-25cc-9107-e040-0b0a3dfe563c,0.5,e1a15081-25cc-9107-e040-0b0a3dfe563c,"Berlin, Prenzlauer Promenade 68",HEM,Prenzlauer Promenade,68,13089,Berlin,52.568175,13.428553,2014-03-18T16:45:31.000+01:00,"\"{\"\"openingTimes\"\":[{\"\"applicable_days\"\":127"
e1a15081-2627-9107-e040-0b0a3dfe563c,0.575,e1a15081-2627-9107-e040-0b0a3dfe563c,"Schwetzingen, Zündholzstr. 3",SB,Zündholzstr.,3,68723,Schwetzingen,49.4131,8.5457,2014-03-18T16:45:31.000+01:00,"\"{\"\"openingTimes\"\":[{\"\"applicable_days\"\":63"
051d54db-1e51-4696-8365-879ac7e2eb8d,0.8421052631578947,051d54db-1e51-4696-8365-879ac7e2eb8d,"Donaueschingen, Emil-von-Kessler-St",HEM,Emil-von-Kessler-Str.,4,78166,Donaueschingen,47.935808,8.49708,2014-12-03T00:00:01.000+01:00,"\"{\"\"openingTimes\"\":[{\"\"applicable_days\"\":63"
a1177a22-0453-11ea-b951-005056a2a083,0.8,a1177a22-0453-11ea-b951-005056a2a083,CLASSIC Burgstädt,CLASSIC,Mohsdorfer Straße,73,09217,Burgstädt,50.92475,12.81356,2019-12-01T06:01:13.000+01:00,"\"{\"\"overrides\"\":[{\"\"startp\"\":\"\"2024-12-31 08:00\"\""
bcba0c2b-fbe7-4447-aacf-6806f1244f6b,0.7368421052631579,bcba0c2b-fbe7-4447-aacf-6806f1244f6b,Tankstelle Reier Steinbach,,Ludwigsstädter Str.,42,96361,Steinbach,50.439901,11.370797,2014-03-18T16:45:31.000+01:00,{}
39254885-aacf-4d3b-5909-d7db06222647,0.9090909090909091,39254885-aacf-4d3b-5909-d7db06222647,Buchen,HERM,In der vorderen Wanne,11,74722,Buchen,49.52632,9.33498,2014-03-18T16:45:31.000+01:00,{}
51d4b5c4-a095-1aa0-e100-80009459e03a,0.782608695652174,51d4b5c4-a095-1aa0-e100-80009459e03a,JET RASTEDE RAIFFEISENSTR. 52,JET,RAIFFEISENSTR.,52,26180,RASTEDE,53.24686,8.18694,2014-03-18T16:45:31.000+01:00,"\"{\"\"openingTimes\"\":[{\"\"applicable_days\"\":31"
ce241717-bf40-1eea-90aa-0d50f9a95cd8,0.75,ce241717-bf40-1eea-90aa-0d50f9a95cd8,JET TEUTSCHENTHAL ERNST-THAELMANN-STR. 137 A,JET,ERNST-THAELMANN-STR.,137 A,06179,TEUTSCHENTHAL,51.43277,11.90354,2020-02-13T00:01:15.000+01:00,"\"{\"\"openingTimes\"\":[{\"\"applicable_days\"\":31"
b34724e7-86aa-496f-964d-d42ca51d68fc,0.8333333333333334,b34724e7-86aa-496f-964d-d42ca51d68fc,Greenline Schönebeck,Greenline,Magdeburger Str.,161,39218,Schönebeck,52.0148,11.7128,2014-12-09T00:00:01.000+01:00,{}
de1f57df-a69d-416f-a718-ddf20da5da75,0.7567567567567568,de1f57df-a69d-416f-a718-ddf20da5da75,AVIA Tankstelle,AVIA,Lindenstraße,33,27239,Twistringen,52.79576,8.635473,2014-03-18T16:45:31.000+01:00,"\"{\"\"overrides\"\":[{\"\"startp\"\":\"\"2024-12-31 08:00\"\""
34d22bc2-b1b7-435d-899c-5370148e27ef,0.6976744186046512,34d22bc2-b1b7-435d-899c-5370148e27ef,AVIA Tankstelle,AVIA,Mühlenweg,17,26209,Hatten,53.05154,8.264041,2014-03-18T16:45:31.000+01:00,{}
bd9feb71-5a7d-45aa-acea-0f27bc61430b,0.7555555555555555,bd9feb71-5a7d-45aa-acea-0f27bc61430b,Esso Tankstelle,ESSO,KOENIGSDORFER STR. 24,"",82515,WOLFRATSHAUSEN,47.910029,11.421433,2014-03-18T16:45:31.000+01:00,"\"{\"\"openingTimes\"\":[{\"\"applicable_days\"\":127"
005056ba-7cb6-1ed5-acf9-0fb3bfc501a5,0.8888888888888888,005056ba-7cb6-1ed5-acf9-0fb3bfc501a5,star Tankstelle,STAR,Altentreptower Straße,2,12683,Berlin,52.513327,13.563785,2016-01-09T00:00:01.000+01:00,"\"{\"\"overrides\"\":[{\"\"startp\"\":\"\"2024-12-31 09:00\"\""
5f60e40d-e8f6-4d90-90b0-6e512d21315c,0.8181818181818182,5f60e40d-e8f6-4d90-90b0-6e512d21315c,Esso Tankstelle,ESSO,BILLHORNER ROEHRENDAMM 119,"",20539,HAMBURG,53.536232,10.036326,2014-03-18T16:45:31.000+01:00,"\"{\"\"openingTimes\"\":[{\"\"applicable_days\"\":31"
a3a2ab26-a1b3-4106-a555-ea2307947d6c,0.6666666666666666,a3a2ab26-a1b3-4106-a555-ea2307947d6c,BELL Oil,BELL Oil,Westerwaldstraße,8,56587,Oberhonnefeld-Gierend,50.56072,7.527342,2015-10-31T00:00:01.000+01:00,"\"{\"\"openingTimes\"\":[{\"\"applicable_days\"\":64"
0fc6f683-5e6e-4ae5-8e02-a76919a02c56,1.0,0fc6f683-5e6e-4ae5-8e02-a76919a02c56,REWE-Tankstelle,REWE-Tankstelle,Feldstraße,46,63110,Rodgau,50.002987,8.885198,2020-08-06T06:01:16.000+02:00,"\"{\"\"openingTimes\"\":[{\"\"applicable_days\"\":63"
005056ba-7cb6-1ed2-bceb-5c2395d64d18,0.6666666666666666,005056ba-7cb6-1ed2-bceb-5c2395d64d18,star Tankstelle,STAR,Stauffenbergstraße,10,32791,Lage,51.989722,8.790706,2014-03-18T16:45:31.000+01:00,"\"{\"\"openingTimes\"\":[{\"\"applicable_days\"\":31"
005056ba-7cb6-1ed2-bceb-80c585ca6d2b,0.9615384615384616,005056ba-7cb6-1ed2-bceb-80c585ca6d2b,star Tankstelle,STAR,Dorotheenstraße,91,40235,Düsseldorf,51.225475,6.811112,2014-03-18T16:45:31.000+01:00,"\"{\"\"overrides\"\":[{\"\"startp\"\":\"\"2024-12-31 06:00\"\""
51d4b61c-a095-1aa0-e100-80009459e03a,0.6590909090909091,51d4b61c-a095-1aa0-e100-80009459e03a,JET MUENCHEN DACHAUER STR. 240,JET,DACHAUER STR.,240,80992,MUENCHEN,48.17846,11.51727,2014-03-18T16:45:31.000+01:00,"\"{\"\"openingTimes\"\":[{\"\"applicable_days\"\":255"
51d4b658-a095-1aa0-e100-80009459e03a,0.6,51d4b658-a095-1aa0-e100-80009459e03a,JET DUISBURG RHEINPREUSSENSTRASSE 73,JET,RHEINPREUSSENSTRASSE,73,47198,DUISBURG,51.44495,6.68652,2014-03-18T16:45:31.000+01:00,"\"{\"\"openingTimes\"\":[{\"\"applicable_days\"\":63"
51d4b6fd-a095-1aa0-e100-80009459e03a,0.8461538461538461,51d4b6fd-a095-1aa0-e100-80009459e03a,JET TUEBINGEN EUROPASTR. 57,JET,EUROPASTR.,57,72072,TUEBINGEN,48.50894,9.04221,2014-03-18T16:45:31.000+01:00,"\"{\"\"openingTimes\"\":[{\"\"applicable_days\"\":31"
51d4b718-a095-1aa0-e100-80009459e03a,0.75,51d4b718-a095-1aa0-e100-80009459e03a,JET WERMELSKIRCHEN BURGER STR. 44,JET,BURGER STR.,44,42929,WERMELSKIRCHEN,51.13623,7.20166,2014-03-18T16:45:31.000+01:00,"\"{\"\"openingTimes\"\":[{\"\"applicable_days\"\":63"
51d4b4e3-a095-1aa0-e100-80009459e03a,0.7272727272727273,51d4b4e3-a095-1aa0-e100-80009459e03a,JET HANAU WESTERBURGSTRASSE 7,JET,WESTERBURGSTRASSE,7,63450,HANAU,50.12419,8.91401,2014-03-18T16:45:31.000+01:00,"\"{\"\"openingTimes\"\":[{\"\"applicable_days\"\":31"
cd8ba6a6-0cee-1ee6-a9bf-d794ad894588,0.8571428571428571,cd8ba6a6-0cee-1ee6-a9bf-d794ad894588,JET LADENBURG WALLSTADTER STR. 67 B,JET,WALLSTADTER STR.,67 B,68526,LADENBURG,49.48124,8.60135,2016-11-09T00:00:01.000+01:00,"\"{\"\"openingTimes\"\":[{\"\"applicable_days\"\":63"
51d4b5f3-a095-1aa0-e100-80009459e03a,0.717948717948718,51d4b5f3-a095-1aa0-e100-80009459e03a,JET DARMSTADT LEYDHECKERSTR. 18,JET,LEYDHECKERSTR.,18,64293,DARMSTADT,49.88771,8.63837,2014-03-18T16:45:31.000+01:00,{}
dd6e34cb-6742-4427-8ddd-20f9fe5873ad,1.0,dd6e34cb-6742-4427-8ddd-20f9fe5873ad,Shell Schoenebeck (Elbe) Jakobstr. 55,Shell,Jakobstr.,55,39218,Schoenebeck (Elbe),52.001564,11.706303,2014-03-18T16:45:31.000+01:00,{}
098afd30-5ce2-11ec-8abb-005056a27fa7,0.7058823529411765,098afd30-5ce2-11ec-8abb-005056a27fa7,CLASSIC Wadersloh,CLASSIC,Lange Str.,36,59329,Wadersloh,51.73669,8.17246,2022-02-01T06:01:18.000+01:00,{}
f5cc7b1b-b573-449e-a468-b7273a1e4edc,0.9047619047619048,f5cc7b1b-b573-449e-a468-b7273a1e4edc,TotalEnergies Bad Duerrheim,TotalEnergies,Scheffelstr.,13,78073,Bad Duerrheim,48.021233,8.527893,2014-03-18T16:45:31.000+01:00,"\"{\"\"openingTimes\"\":[{\"\"applicable_days\"\":31"
73f34ee9-64ab-4009-a092-575ce13ce326,0.7837837837837838,73f34ee9-64ab-4009-a092-575ce13ce326,TotalEnergies Berlin,TotalEnergies,Schoeneberger Str,17,12103,Berlin,52.470148,13.371984,2015-07-30T00:00:01.000+02:00,"\"{\"\"openingTimes\"\":[{\"\"applicable_days\"\":127"
3837e9df-7eeb-4ce1-91d8-1e190a096575,0.8275862068965517,3837e9df-7eeb-4ce1-91d8-1e190a096575,Helftaer Mineralölhandel GmbH,HMH,Lange Lauchstädter Str.,1,06179,Teutschenthal,51.44856,11.82069,2019-04-08T23:30:07.000+02:00,{}
869cc2a8-629b-4920-943d-954e331b37cb,0.7368421052631579,869cc2a8-629b-4920-943d-954e331b37cb,AVIA Tankstelle,AVIA,Alte Landstraße,7,78112,Sankt Georgen,48.12531,8.340573,2017-12-12T23:30:06.000+01:00,"\"{\"\"openingTimes\"\":[{\"\"applicable_days\"\":31"
ac9f957a-fec9-4915-b0d8-cc39a510e849,0.5454545454545454,ac9f957a-fec9-4915-b0d8-cc39a510e849,Raiffeisen-Warengenossenschaft Heidesand eG,Raiffeisen,Vahlder Weg,41,27383,Scheeßel,53.1681,9.49725,2014-03-18T16:45:31.000+01:00,{}
4bec98fb-6f2a-4e6e-8282-970783b15264,0.7307692307692307,4bec98fb-6f2a-4e6e-8282-970783b15264,Tankstelle Wegener,Tankstelle Wegener,Rahlmühler Str.,48,31848,Bad Münder,52.19678,9.448864,2018-11-08T23:30:07.000+01:00,{}
180bf3b0-eb13-4628-9732-075821e94c23,0.9523809523809523,180bf3b0-eb13-4628-9732-075821e94c23,Shell Ingolstadt Goethestr. 145,Shell,Goethestr.,145,85055,Ingolstadt,48.772381,11.452338,2014-03-18T16:45:31.000+01:00,{}
84f6c036-70c0-4e92-8936-5257cf544c8a,0.5925925925925926,84f6c036-70c0-4e92-8936-5257cf544c8a,Shell Straelen Wankumer Str. 11,Shell,Wankumer Str.,11,47638,Straelen,51.432161,6.274792,2014-03-18T16:45:31.000+01:00,"\"{\"\"openingTimes\"\":[{\"\"applicable_days\"\":255"
94951f5d-8a0c-461b-8d70-833bfda1ca7b,0.6764705882352942,94951f5d-8a0c-461b-8d70-833bfda1ca7b,Aral Tankstelle,ARAL,Im Stöckmädle,29,76307,Karlsbad-Ittersbach,48.88042,8.510005,2014-03-18T16:45:31.000+01:00,"\"{\"\"openingTimes\"\":[{\"\"applicable_days\"\":64"
01bff8f4-91d2-49d4-9d65-dcc1902ca4bc,0.7857142857142857,01bff8f4-91d2-49d4-9d65-dcc1902ca4bc,Aral Tankstelle,ARAL,Dessauer Straße,274 a,06886,Lutherstadt Wittenbe,51.865646,12.621698,2014-03-18T16:45:31.000+01:00,"\"{\"\"openingTimes\"\":[{\"\"applicable_days\"\":96"
41dc8dad-17cf-43ad-9d03-7ee1ec48528b,0.7948717948717948,41dc8dad-17cf-43ad-9d03-7ee1ec48528b,Aral Tankstelle,ARAL,Neuenkirchener Straße,44,48431,Rheine,52.27928,7.42933,2014-03-18T16:45:31.000+01:00,{}
b9d1b625-8158-4660-906b-33459746e55b,0.8709677419354839,b9d1b625-8158-4660-906b-33459746e55b,Aral Tankstelle,ARAL,Hauptstraße,242,55743,Idar-Oberstein,49.70951,7.315356,2014-03-18T16:45:31.000+01:00,{}
9123b96c-a68e-485e-b5e6-3095d42d55bc,0.7567567567567568,9123b96c-a68e-485e-b5e6-3095d42d55bc,Aral Tankstelle,ARAL,Ansbacher Straße,34,91586,Lichtenau,49.28117,10.679745,2014-03-18T16:45:31.000+01:00,"\"{\"\"openingTimes\"\":[{\"\"applicable_days\"\":64"
278130b1-e062-4a0f-80cc-19e486b4c024,0.9032258064516129,278130b1-e062-4a0f-80cc-19e486b4c024,Aral Tankstelle,ARAL,Holzmarktstraße,12/14,10179,Berlin,52.514153,13.421487,2014-03-18T16:45:31.000+01:00,{}
5f7af8d1-1112-439a-a68e-7b2d3331f9f1,0.8857142857142857,5f7af8d1-1112-439a-a68e-7b2d3331f9f1,Aral Tankstelle,ARAL,Bundesstraße,150,52538,Gangelt,50.988632,6.033085,2014-03-18T16:45:31.000+01:00,"\"{\"\"openingTimes\"\":[{\"\"applicable_days\"\":64"
b1d8fc89-8404-43b5-bd89-7ce2dacc95c9,0.75,b1d8fc89-8404-43b5-bd89-7ce2dacc95c9,Stefan Dewald,ED,Schmittmannstraße,2,53507,Dernau,50.529278,7.040976,2014-03-18T16:45:31.000+01:00,"\"{\"\"overrides\"\":[{\"\"startp\"\":\"\"2024-12-31 06:00\"\""
a282c4eb-2635-4f32-bacb-9a39b3eb2cd0,0.8260869565217391,a282c4eb-2635-4f32-bacb-9a39b3eb2cd0,Brake,SCORE,Breite Straße,200,26919,Brake,53.325442,8.460329,2021-08-31T10:01:18.000+02:00,"\"{\"\"openingTimes\"\":[{\"\"applicable_days\"\":96"
88a49971-a388-4f04-aa00-eb802035bb7a,0.7,88a49971-a388-4f04-aa00-eb802035bb7a,AVIA Tankstelle,AVIA,Friedrichsfehner Straße,42,26188,Edewecht,53.12468,8.096053,2014-03-18T16:45:31.000+01:00,{}
4297c3bd-c252-4e23-b09b-3d8ae2818e0c,0.8620689655172413,4297c3bd-c252-4e23-b09b-3d8ae2818e0c,KFZ-Service Garbode GbR,BFT,Industriestr.,5,37120,Bovenden,51.593612,9.926786,2014-03-18T16:45:31.000+01:00,"\"{\"\"openingTimes\"\":[{\"\"applicable_days\"\":31"
7c8c0a4f-f59c-509e-8ec0-f5c140376928,1.0,7c8c0a4f-f59c-509e-8ec0-f5c140376928,Neustadt-Glewe,Hoyer,An der Autobahn,7,19306,Neustadt-Glewe,53.38021087646,11.62738990784,2014-03-18T16:45:31.000+01:00,{}
52c48d08-ba5e-596c-a9e0-1ea49bf63092,1.0,52c48d08-ba5e-596c-a9e0-1ea49bf63092,Bispingen,Hoyer,Behringer Str.,50,29646,Bispingen,53.09075546265,9.9874420166,2014-03-18T16:45:31.000+01:00,{}
7ff7575b-482e-5501-9297-2455be381867,1.0,7ff7575b-482e-5501-9297-2455be381867,Soltau,Hoyer,Gottlieb-Daimler-Str.,2c,29614,Soltau,52.99751663208,9.9213848114,2014-03-18T16:45:31.000+01:00,{}
921abb25-8329-4837-89dd-ed9251dc22b0,0.9032258064516129,921abb25-8329-4837-89dd-ed9251dc22b0,Esso Station,ESSO,Nürnberger Str. 17 a,"",92237,Sulzbach-Rosenberg,49.506062,11.729488,2014-03-18T16:45:31.000+01:00,"\"{\"\"openingTimes\"\":[{\"\"applicable_days\"\":31"
e1a15081-25f7-9107-e040-0b0a3dfe563c,0.7333333333333333,e1a15081-25f7-9107-e040-0b0a3dfe563c,"Celle, Celler Heerstr. 22",HEM,Celler Heerstr.,22,29229,Celle,52.658748,10.128632,2014-03-18T16:45:31.000+01:00,"\"{\"\"openingTimes\"\":[{\"\"applicable_days\"\":31"
93a1f345-e930-4a36-a620-4a80a4f5de1e,0.7222222222222222,93a1f345-e930-4a36-a620-4a80a4f5de1e,Tankstelle,Freie Tankstelle,Mümlingstr.,70,64750,Lützelbach,49.788212875429,9.0651220340011,2017-02-03T00:00:26.000+01:00,"\"{\"\"openingTimes\"\":[{\"\"applicable_days\"\":31"
1ef0a716-fe6c-4545-b5c8-e8eff6ceef54,0.5,1ef0a716-fe6c-4545-b5c8-e8eff6ceef54,Andreas Kefferpütz,Tank & Shop,Aegidienberger Str.,45,53604,Bad Honnef,50.660573,7.301906,2014-03-18T16:45:31.000+01:00,"\"{\"\"overrides\"\":[{\"\"startp\"\":\"\"2024-12-31 15:00\"\""
b4693c2b-e77c-4eb5-9d76-8c53e55ea6d2,0.75,b4693c2b-e77c-4eb5-9d76-8c53e55ea6d2,Tankstelle H.Bröring GmbH & Co kG,Broering Tankstelle,Samskamp,2,49413,Dinklage,52.6647,8.12165,2024-01-18T00:52:36.000+01:00,{}
a1c44af5-26c7-4251-abe4-39a653141b01,0.4,a1c44af5-26c7-4251-abe4-39a653141b01,KK-Tankstelle,Frei,Eppelheimer Str.,27,69115,Heidelberg,49.406003,8.659608,2016-02-26T00:00:01.000+01:00,"\"{\"\"openingTimes\"\":[{\"\"applicable_days\"\":31"
e1a15081-25ed-9107-e040-0b0a3dfe563c,0.5957446808510638,e1a15081-25ed-9107-e040-0b0a3dfe563c,"Sehnde, Kirchstr. 17",HEM,Kirchstr.,17,31319,Sehnde,52.34744,9.928732,2014-03-18T16:45:31.000+01:00,"\"{\"\"openingTimes\"\":[{\"\"applicable_days\"\":31"
7540d20d-4388-45d7-95a0-2b9dd3467900,0.6774193548387096,7540d20d-4388-45d7-95a0-2b9dd3467900,Hage,SCORE,Hauptstr.,103,26524,Hage,53.602283,7.27372,2014-03-18T16:45:31.000+01:00,"\"{\"\"openingTimes\"\":[{\"\"applicable_days\"\":128"
b534289f-71d0-449c-9aa9-78ca57fa6abc,0.6851851851851852,b534289f-71d0-449c-9aa9-78ca57fa6abc,Rapp Autoservice GmbH,Rapp - Freie Tankstelle,Hans-Krieg-Straße,43,71665,Vaihingen/Enz,48.9282,8.967,2023-12-21T00:43:06.000+01:00,{}
4cfb155f-f8ae-4685-abdb-cbe5a6e04e5a,0.9545454545454546,4cfb155f-f8ae-4685-abdb-cbe5a6e04e5a,Sb Markt Eschweiler Auerbachstraße 2,SB Markt,Auerbachstraße,2,52249,Eschweiler,50.822912,6.251812,2014-09-06T00:00:01.000+02:00,"\"{\"\"openingTimes\"\":[{\"\"applicable_days\"\":192"
f50a465d-0a04-4131-845f-fe2e96d54f4d,0.6274509803921569,f50a465d-0a04-4131-845f-fe2e96d54f4d,"Flensburg (24941), Marie-Curie-Ring 45",team,Marie-Curie-Ring,45,24941,Flensburg,54.7631,9.44895,2014-03-18T16:45:31.000+01:00,{}
fa8baf41-dba7-42a4-bd9e-7c7676d75c7d,0.7164179104477612,fa8baf41-dba7-42a4-bd9e-7c7676d75c7d,"Osterrönfeld (24783), Kieler Str. 6",team,Kieler Str.,21b,24783,Osterrönfeld,54.2955,9.70804,2015-07-27T00:00:01.000+02:00,"\"{\"\"overrides\"\":[{\"\"startp\"\":\"\"2024-12-31 05:00\"\""
0a5fcb05-87c8-49ad-ac8f-2065a344a739,0.6739130434782609,0a5fcb05-87c8-49ad-ac8f-2065a344a739,Shell Recklinghausen Hertener Str. 100,Shell,Hertener Str.,100,45657,Recklinghausen,51.609695,7.181562,2014-03-18T16:45:31.000+01:00,"\"{\"\"openingTimes\"\":[{\"\"applicable_days\"\":255"
78667dc3-f504-4cfa-b108-d17839d2772b,0.9428571428571428,78667dc3-f504-4cfa-b108-d17839d2772b,Shell Ulm Hauptstr. 12,Shell,Hauptstr.,12,89079,Ulm,48.358842,9.987839,2014-03-18T16:45:31.000+01:00,"\"{\"\"openingTimes\"\":[{\"\"applicable_days\"\":224"
40acc448-0bc6-463c-be68-2717086a729e,0.7317073170731707,40acc448-0bc6-463c-be68-2717086a729e,Shell Uebach-Palenberg Maastrichter Str. 41,Shell,Maastrichter Str.,41,52531,Uebach-Palenberg,50.920916,6.109794,2017-12-30T23:30:06.000+01:00,"\"{\"\"openingTimes\"\":[{\"\"applicable_days\"\":192"
d82d5bde-f83a-4a90-a489-93056fd582c7,0.95,d82d5bde-f83a-4a90-a489-93056fd582c7,Shell Uffenheim Abfahrt A 7,Shell,Abfahrt A,7,97215,Uffenheim,49.51036,10.195588,2014-03-18T16:45:31.000+01:00,{}
193514d9-dc20-41bb-b5a4-a1fa8fc31716,0.8333333333333334,193514d9-dc20-41bb-b5a4-a1fa8fc31716,Shell Schellerten A7 Hildesheimer Boerde Ost,Shell,A7 Hildesheimer Boerde Ost,,31174,Schellerten,52.127678,10.051422,2014-03-18T16:45:31.000+01:00,{}
6234376e-4763-4fbb-8cb9-ffea18de21bd,0.84,6234376e-4763-4fbb-8cb9-ffea18de21bd,Shell Osterfeld A9 Osterfeld Ost,Shell,A9 Osterfeld Ost,,06721,Osterfeld,51.103175,11.956584,2014-03-18T16:45:31.000+01:00,{}
6c2736ae-55f5-4e02-b6b8-c6b96c6f42db,0.7333333333333333,6c2736ae-55f5-4e02-b6b8-c6b96c6f42db,Aral Tankstelle,ARAL,Bamenohler Straße,113,57413,Finnentrop,51.168472,7.977023,2014-04-09T00:00:01.000+02:00,"\"{\"\"openingTimes\"\":[{\"\"applicable_days\"\":96"
728344c8-f3fe-4c80-9865-cd7a256415fc,0.9230769230769231,728344c8-f3fe-4c80-9865-cd7a256415fc,Aral Tankstelle,ARAL,Herrenberger Straße,50,71034,Böblingen,48.68303,9.001526,2014-03-18T16:45:31.000+01:00,{}
86743cec-3b18-4c86-a213-000a133380cc,0.7647058823529411,86743cec-3b18-4c86-a213-000a133380cc,Aral Tankstelle,ARAL,Äußere-Kanal-Straße,90,50827,Köln,50.958534,6.905212,2014-03-18T16:45:31.000+01:00,{}
dd7fdf56-dc33-448e-b91d-94441489afa6,0.926829268292683,dd7fdf56-dc33-448e-b91d-94441489afa6,TotalEnergies Grimmen,TotalEnergies,Greifswalder Ch.,4,18507,Grimmen,54.109253,13.05623,2014-03-18T16:45:31.000+01:00,"\"{\"\"openingTimes\"\":[{\"\"applicable_days\"\":127"
e1a15081-24c8-9107-e040-0b0a3dfe563c,0.5714285714285714,e1a15081-24c8-9107-e040-0b0a3dfe563c,"Berlin, Berliner Allee 320",HEM,Berliner Allee,320,13088,Berlin,52.565454,13.472317,2014-03-18T16:45:31.000+01:00,"\"{\"\"openingTimes\"\":[{\"\"applicable_days\"\":15"
e1a15081-25db-9107-e040-0b0a3dfe563c,0.8275862068965517,e1a15081-25db-9107-e040-0b0a3dfe563c,"Eicklingen, Schmolkamp 44",HEM,Schmolkamp,44,29358,Eicklingen,52.544451,10.192661,2014-03-18T16:45:31.000+01:00,"\"{\"\"openingTimes\"\":[{\"\"applicable_days\"\":31"
a16d5bfa-0800-c8e6-b21e-268dcd70178c,0.7272727272727273,a16d5bfa-0800-c8e6-b21e-268dcd70178c,Tramin Tankcenter Hafen,Tramin,Rhein/Ecke Elbestr,.,45478,Mülheim,51.431481,6.859273,2022-02-23T00:01:20.000+01:00,{}
61867cfe-9a8a-4bbb-a3b6-afa60e19ba6f,1.0,61867cfe-9a8a-4bbb-a3b6-afa60e19ba6f,BayWa Tankstelle Hersbruck,BayWa,Happurger Str.,42,91217,Hersbruck,49.50239,11.44154,2014-03-18T16:45:31.000+01:00,{}
de11c5d4-7113-48c5-8e5f-9228a8f17622,1.0,de11c5d4-7113-48c5-8e5f-9228a8f17622,Kaiser-Tankstelle Isenstedt,,Blankenhorststr.,6,32339,Espelkamp,52.34576,8.65691,2019-03-22T23:30:06.000+01:00,{}
7e32127d-8a2a-4b59-aa0e-dd0468596340,1.0,7e32127d-8a2a-4b59-aa0e-dd0468596340,Raiffeisen Handels- und Vermittlungsgesellschaft mbH Eichenzell,Raiffeisen,Gewerbegebiet West,7,39646,Oebisfelde,52.43497,10.9728,2023-01-13T20:01:26.000+01:00,{}
03d5b974-3815-4f21-9807-5a211f23546f,1.0,03d5b974-3815-4f21-9807-5a211f23546f,Kuster Energy,Kuster Energy,Werner-Heisenberg-Straße,18,46446,Emmerich,51.841484,6.277499,2014-10-22T00:00:01.000+02:00,{}
65d95b09-e1cb-454f-b3da-49876ad84561,0.8108108108108109,65d95b09-e1cb-454f-b3da-49876ad84561,Esso Station,ESSO,Sudetenstr. 67,"",82538,Geretsried,47.853517,11.494639,2014-03-18T16:45:31.000+01:00,"\"{\"\"openingTimes\"\":[{\"\"applicable_days\"\":63"
08d7c663-2804-4d6e-bbdf-12330c3578c4,0.8636363636363636,08d7c663-2804-4d6e-bbdf-12330c3578c4,Esso Station,ESSO,Ingolstädter Str. 24,"",85084,Reichertshofen,48.659983,11.464245,2014-03-18T16:45:31.000+01:00,"\"{\"\"openingTimes\"\":[{\"\"applicable_days\"\":31"
01a2529b-da12-40db-9e07-8a6646b54ddb,0.6571428571428571,01a2529b-da12-40db-9e07-8a6646b54ddb,WT-Rhede A31,Wiro,Industriestr.,3,26899,Rhede,53.064874705974,7.2475564183158,2014-03-18T16:45:31.000+01:00,{}
2065f709-5c1e-4ce0-9583-1ddaf11a2f9e,0.8695652173913043,2065f709-5c1e-4ce0-9583-1ddaf11a2f9e,Esso Tankstelle,ESSO,KURFUERSTENALLEE 119,"",28329,BREMEN,53.081858,8.866397,2014-03-18T16:45:31.000+01:00,"\"{\"\"openingTimes\"\":[{\"\"applicable_days\"\":31"
5e44d2ce-4d22-4abe-97d5-761567b8b277,0.9230769230769231,5e44d2ce-4d22-4abe-97d5-761567b8b277,Esso Tankstelle,ESSO,LEIPZIGER STR. 82,"",04720,DOEBELN,51.130168,13.114204,2014-03-18T16:45:31.000+01:00,"\"{\"\"openingTimes\"\":[{\"\"applicable_days\"\":127"
39411d49-94ba-4c72-9016-1ef3ee3e1e2c,0.675,39411d49-94ba-4c72-9016-1ef3ee3e1e2c,Esso Tankstelle,ESSO,TRIERER STR. 148,"",54411,HERMESKEIL,49.660812,6.927781,2014-03-18T16:45:31.000+01:00,"\"{\"\"openingTimes\"\":[{\"\"applicable_days\"\":31"
c88083d6-c20c-4dc0-73bf-b8b902c0f986,0.8518518518518519,c88083d6-c20c-4dc0-73bf-b8b902c0f986,TAS Wennigsen,TAS,Degerser Str.,21,30974,Wennigsen,52.281876,9.574035,2018-01-03T23:30:06.000+01:00,"\"{\"\"overrides\"\":[{\"\"startp\"\":\"\"2024-12-31 05:00\"\""
650b7bf9-8e71-4abc-bacd-66594b2f1007,0.7777777777777778,650b7bf9-8e71-4abc-bacd-66594b2f1007,SB Hennef Frankfurterstr. 125,SB,Frankfurterstr.,125,53773,Hennef,50.7769,7.28034,2014-11-11T00:00:01.000+01:00,"\"{\"\"overrides\"\":[{\"\"startp\"\":\"\"2024-12-31 06:00\"\""
59010956-4b49-4353-9fae-e66cec6461fa,0.7567567567567568,59010956-4b49-4353-9fae-e66cec6461fa,AVIA XPress,AVIA XPress,Hauptstraße,52,74429,Sulzbach-Laufen,48.96275,9.846802,2015-07-31T00:00:01.000+02:00,"\"{\"\"openingTimes\"\":[{\"\"applicable_days\"\":127"
e1a15081-2538-9107-e040-0b0a3dfe563c,0.84,e1a15081-2538-9107-e040-0b0a3dfe563c,"Stadthagen, Vornhäger Str. 66a",HEM,Vornhäger Str. A,66,31655,Stadthagen,52.327812,9.219954,2014-03-18T16:45:31.000+01:00,"\"{\"\"openingTimes\"\":[{\"\"applicable_days\"\":127"
51d4b4c6-a095-1aa0-e100-80009459e03a,0.78125,51d4b4c6-a095-1aa0-e100-80009459e03a,Supermarkt-Tankstelle MOENCHENGLADBACH OTTOSTR. 3-5,Supermarkt-Tankstelle,OTTOSTR.,3-5,41238,MOENCHENGLADBACH,51.16441,6.46038,2014-03-18T16:45:31.000+01:00,"\"{\"\"openingTimes\"\":[{\"\"applicable_days\"\":31"
005056ba-7cb6-1ed2-bceb-5fa30d83cd1b,0.6136363636363636,005056ba-7cb6-1ed2-bceb-5fa30d83cd1b,famila Tankstelle,FAMILA,Kisdorfer Weg,13,24568,Kaltenkirchen,53.82952,9.97833,2014-03-18T16:45:31.000+01:00,"\"{\"\"openingTimes\"\":[{\"\"applicable_days\"\":63"
005056ba-7cb6-1ed2-bceb-6923b73a8d20,0.7857142857142857,005056ba-7cb6-1ed2-bceb-6923b73a8d20,star Tankstelle,STAR,Ihmerter Straße,101,58675,Hemer,51.349336,7.746987,2014-03-18T16:45:31.000+01:00,"\"{\"\"overrides\"\":[{\"\"startp\"\":\"\"2024-12-31 06:00\"\""
24358c87-842c-4ae5-b3e8-907990f9c941,0.6585365853658537,24358c87-842c-4ae5-b3e8-907990f9c941,AVIA Tankstelle,AVIA,Vor dem Lohe,1,99628,Buttstädt,51.12585,11.42704,2014-03-18T16:45:31.000+01:00,"\"{\"\"openingTimes\"\":[{\"\"applicable_days\"\":31"
51d4b6a6-a095-1aa0-e100-80009459e03a,0.9090909090909091,51d4b6a6-a095-1aa0-e100-80009459e03a,JET ERFTSTADT SIEMENSSTR. 39,JET,SIEMENSSTR.,39,50374,ERFTSTADT,50.79574,6.78025,2014-03-18T16:45:31.000+01:00,{}
197e2121-3ad3-4450-b897-0df57e4369f0,0.6,197e2121-3ad3-4450-b897-0df57e4369f0,Gökhan Orhan,Markant,Neue Ritter Str.,41,47805,Krefeld,51.32899,6.58728,2014-03-18T16:45:31.000+01:00,"\"{\"\"openingTimes\"\":[{\"\"applicable_days\"\":32"
f1c8c8d4-a184-4314-bcad-113a91c8b49d,0.6363636363636364,f1c8c8d4-a184-4314-bcad-113a91c8b49d,Holger Hoffmann,NORDOEL,Reeshoop,47,22926,Ahrensburg,53.6799,10.23426,2015-07-02T00:00:01.000+02:00,"\"{\"\"openingTimes\"\":[{\"\"applicable_days\"\":31"
40added2-12c5-409b-8e28-4b9ec3e9dc90,0.6451612903225806,40added2-12c5-409b-8e28-4b9ec3e9dc90,Shell Bedburg Neusser Str. 55,Shell,Neusser Str.,55,50181,Bedburg,50.996553,6.568916,2014-03-18T16:45:31.000+01:00,{}
9ed69943-e982-423c-ad63-a930aac99352,0.8648648648648649,9ed69943-e982-423c-ad63-a930aac99352,Lenz Energie AG,Lenz Energie,Bitzwiesen,5,74915,Waibstadt,49.303781,8.902277,2018-02-02T23:30:06.000+01:00,{}
0c8af28e-db54-4c9f-8dca-7047e1983e88,0.6818181818181818,0c8af28e-db54-4c9f-8dca-7047e1983e88,ERLANGEN - SCHENKSTRASSE 39,SUPOL,Schenkstrasse,39,91052,Erlangen,49.586984,11.013236,2014-03-18T16:45:31.000+01:00,"\"{\"\"overrides\"\":[{\"\"startp\"\":\"\"2024-12-31 06:00\"\""
b02f97b9-2367-47cb-8290-0da8f91942f4,0.6923076923076923,b02f97b9-2367-47cb-8290-0da8f91942f4,ENI,AGIP ENI,Further Strasse,8,93413,Cham,49.22373,12.67087,2014-03-20T00:00:01.000+01:00,"\"{\"\"openingTimes\"\":[{\"\"applicable_days\"\":31"
beb4aa5c-fbff-9f15-e100-00000630df04,0.8333333333333334,beb4aa5c-fbff-9f15-e100-00000630df04,ENI,AGIP ENI,Henkerberg,2,88696,Owingen,47.800827229243,9.173677770964,2023-04-20T18:01:19.000+02:00,"\"{\"\"openingTimes\"\":[{\"\"applicable_days\"\":255"
2f7f7ba3-fd09-4850-bed7-5b0beaca4d08,0.7045454545454546,2f7f7ba3-fd09-4850-bed7-5b0beaca4d08,AVIA Tankstelle,AVIA,Nürnberger Straße,41,92318,Neumarkt,49.288568423467,11.441901117775,2020-01-04T00:01:13.000+01:00,"\"{\"\"overrides\"\":[{\"\"startp\"\":\"\"2024-12-31 06:00\"\""
c3dc6f67-11fa-4a93-96e7-0e965c2aa22d,0.7692307692307693,c3dc6f67-11fa-4a93-96e7-0e965c2aa22d,NÜRNBERG - AEUSSERE SULZBACHER STR.,SUPOL,Äussere Sulzbacher Str.,63,90491,Nürnberg,49.462016,11.112242,2014-03-18T16:45:31.000+01:00,"\"{\"\"openingTimes\"\":[{\"\"applicable_days\"\":31"
a7873b1c-2bd7-4142-b738-d0ac5e3295ab,0.813953488372093,a7873b1c-2bd7-4142-b738-d0ac5e3295ab,Tankstopp 27 GmbH,Freie Tankstelle,Bundesstraße,27,32694,Dörentrup / OT Humfeld,52.0267,9.05596,2014-03-18T16:45:31.000+01:00,{}
cbcf450e-658a-4311-95ad-1f1bf866e3bb,0.6,cbcf450e-658a-4311-95ad-1f1bf866e3bb,K1 Tankstelle Knoop,K1 Tanstelle,Otto-Hahn-Straße,5,45685,Emstek,52.828638,8.118105,2014-03-18T16:45:31.000+01:00,{}
77b78eff-7126-4c17-8c8b-64d98cc8879f,1.0,77b78eff-7126-4c17-8c8b-64d98cc8879f,AVIA XPress,AVIA XPress,Gustav-Kunst-Straße,23,20539,Hamburg,53.5396,10.05857,2014-03-18T16:45:31.000+01:00,{}
1e4d7d82-0945-4cfa-fd6c-2e8cd5235f91,0.7916666666666666,1e4d7d82-0945-4cfa-fd6c-2e8cd5235f91,Heinrich Albers OHG,,Bahnhofstr.,29a,26506,Norden,53.58565,7.22169,2014-03-18T16:45:31.000+01:00,"\"{\"\"overrides\"\":[{\"\"startp\"\":\"\"2024-12-31 06:00\"\""
6d081a4d-213d-49b1-9a7c-7e655e3031a3,0.5588235294117647,6d081a4d-213d-49b1-9a7c-7e655e3031a3,Fricke,AVIA,Gifhorner Str.,1,29392,Wesendorf,52.5924,10.5346,2017-12-17T23:30:06.000+01:00,{}
2072392c-8034-4195-b7da-0a8002aca08e,0.75,2072392c-8034-4195-b7da-0a8002aca08e,bft-Tankstelle Köllmer,,Neue Emleber Str.,2,99869,Schwabhausen,50.89142,10.72622,2014-03-18T16:45:31.000+01:00,"\"{\"\"openingTimes\"\":[{\"\"applicable_days\"\":31"
1260e28b-a3ff-479f-a4d3-5072c2f9dd9e,0.9259259259259259,1260e28b-a3ff-479f-a4d3-5072c2f9dd9e,Shell Bitz Ebinger Str. 100,Shell,Ebinger Str.,100,72475,Bitz,48.237793,9.083712,2014-03-18T16:45:31.000+01:00,{}
b724e129-09e7-409f-8758-ec819bed6cf6,0.8108108108108109,b724e129-09e7-409f-8758-ec819bed6cf6,Shell Filderstadt Echterdinger Str. 100,Shell,Echterdinger Str.,100,70794,Filderstadt,48.678411,9.193091,2014-03-18T16:45:31.000+01:00,{}
856c9246-1ce3-45f4-9764-640f7e1c06f1,0.8292682926829268,856c9246-1ce3-45f4-9764-640f7e1c06f1,Shell Moenchengladbach Duvenstr. 339,Shell,Duvenstr.,339,41238,Moenchengladbach,51.151445,6.450489,2014-03-18T16:45:31.000+01:00,"\"{\"\"openingTimes\"\":[{\"\"applicable_days\"\":192"
e49506e8-5b50-4723-a198-7001324812eb,0.8571428571428571,e49506e8-5b50-4723-a198-7001324812eb,Aral Tankstelle,ARAL,Kronenstraße,42,79211,Denzlingen,48.065613,7.868078,2014-03-18T16:45:31.000+01:00,"\"{\"\"openingTimes\"\":[{\"\"applicable_days\"\":64"
b5da23fb-d440-403f-b4f8-e73aa857b16c,0.8571428571428571,b5da23fb-d440-403f-b4f8-e73aa857b16c,Aral Tankstelle,ARAL,Ruwerer Straße,35,54292,Trier,49.780285,6.70244,2014-03-18T16:45:31.000+01:00,"\"{\"\"openingTimes\"\":[{\"\"applicable_days\"\":64"
9209bab7-f487-4776-9f47-5ddbf7aebc97,0.8571428571428571,9209bab7-f487-4776-9f47-5ddbf7aebc97,Aral Tankstelle,ARAL,Grenzallee,6,12057,Berlin,52.469044,13.461875,2014-03-18T16:45:31.000+01:00,{}
d2a2bf1d-d833-4a5b-8ce2-96103f810361,0.8611111111111112,d2a2bf1d-d833-4a5b-8ce2-96103f810361,Aral Tankstelle,ARAL,Wörthstraße,1A,97082,Würzburg,49.79304,9.916193,2014-03-18T16:45:31.000+01:00,"\"{\"\"openingTimes\"\":[{\"\"applicable_days\"\":127"
d88638ef-97b9-4251-b3f2-bccdfd53e594,0.6304347826086957,d88638ef-97b9-4251-b3f2-bccdfd53e594,Aral Tankstelle,ARAL,Potsdamer Straße,82,14542,Werder,52.36449,12.940611,2014-03-18T16:45:31.000+01:00,"\"{\"\"openingTimes\"\":[{\"\"applicable_days\"\":127"
ea654283-dfc1-4d70-b1e0-07d3030b6f7b,0.6666666666666666,ea654283-dfc1-4d70-b1e0-07d3030b6f7b,Aral Tankstelle,ARAL,Schweinfurter Straße,78,97525,Schwebheim,50.004265,10.242368,2014-03-18T16:45:31.000+01:00,"\"{\"\"overrides\"\":[{\"\"startp\"\":\"\"2024-12-28 00:00\"\""
c3d8a930-ea7f-4e10-b9e5-a5c33e40ffd2,0.7837837837837838,c3d8a930-ea7f-4e10-b9e5-a5c33e40ffd2,Aral Tankstelle,ARAL,Adersheimer Straße,25,38304,Wolfenbüttel,52.161255,10.517295,2014-03-18T16:45:31.000+01:00,"\"{\"\"openingTimes\"\":[{\"\"applicable_days\"\":64"
72f7a2d4-1b77-4556-a45e-8abfb804fb3b,0.7317073170731707,72f7a2d4-1b77-4556-a45e-8abfb804fb3b,Esso Tankstelle,ESSO,VOLKARDEYER WEG 2,"",40472,DUESSELDORF,51.281741,6.794695,2014-03-18T16:45:31.000+01:00,"\"{\"\"openingTimes\"\":[{\"\"applicable_days\"\":63"
bcf35c80-7987-4c37-998d-22c9fcc0e202,0.5555555555555556,bcf35c80-7987-4c37-998d-22c9fcc0e202,Richter und Croeff Inh. Mario Croeff e.K.,ED,Am Moselstausee,39,56858,St. Aldegund,50.07474,7.12926,2014-03-18T16:45:31.000+01:00,"\"{\"\"overrides\"\":[{\"\"startp\"\":\"\"2024-12-31 07:30\"\""
df28e5d9-be04-5f10-8d93-a4a209c46a82,1.0,df28e5d9-be04-5f10-8d93-a4a209c46a82,Celle,Hoyer,Hogrevestr.,8,29223,Celle,52.64185333252,10.11081027985,2015-04-25T00:00:01.000+02:00,{}
00060438-ab8e-4444-8888-acdc00000001,0.6857142857142857,00060438-ab8e-4444-8888-acdc00000001,Rima Tankstelle,,Augsburger Str.,20,86420,Diedorf-Biburg,48.373607635498,10.767181396484,2019-10-30T14:01:13.000+01:00,{}
a00a8c34-e9d8-4d85-8bf8-89ccee2459d8,0.8571428571428571,a00a8c34-e9d8-4d85-8bf8-89ccee2459d8,Raiffeisen Ostwestfalen-Lippe AG,Raiffeisen,Eisenbahnstr.,11,32369,Rahden,52.43088,8.623458,2014-03-18T16:45:31.000+01:00,{}
51d4b60c-a095-1aa0-e100-80009459e03a,0.9523809523809523,51d4b60c-a095-1aa0-e100-80009459e03a,JET KEHL STRASSBURGER STR. 7 A,JET,STRASSBURGER STR.,7 A,77694,KEHL,48.57645,7.815,2014-03-18T16:45:31.000+01:00,"\"{\"\"openingTimes\"\":[{\"\"applicable_days\"\":31"
f2ed6cb5-d0ba-4256-a741-26f56f2d76eb,0.9333333333333333,f2ed6cb5-d0ba-4256-a741-26f56f2d76eb,AVIA Tankstelle,AVIA,Dachauer Straße,10,85247,Schwabhausen,48.29644,11.37363,2014-03-18T16:45:31.000+01:00,"\"{\"\"openingTimes\"\":[{\"\"applicable_days\"\":31"
ab80792d-e882-405a-b3e9-db9d833038d5,1.0,ab80792d-e882-405a-b3e9-db9d833038d5,Vereinigte Saatzuchten eG,Raiffeisen,Uelzener Str.,24,29571,Rosche,52.9858,10.7466,2014-03-18T16:45:31.000+01:00,{}
530ef0bc-2699-4f6a-993b-7575a1c7edb9,0.7272727272727273,530ef0bc-2699-4f6a-993b-7575a1c7edb9,TotalEnergies Puettlingen,TotalEnergies,Koellertalstr.,141,66346,Puettlingen,49.2939,6.892088,2014-03-18T16:45:31.000+01:00,"\"{\"\"openingTimes\"\":[{\"\"applicable_days\"\":31"
29871ae2-d371-4fe8-9f85-7727e601feb9,1.0,29871ae2-d371-4fe8-9f85-7727e601feb9,AVIA Truck,AVIA Truck,Am Pattberg,20,47445,Moers,51.49506,6.591294,2019-07-03T23:30:07.000+02:00,{}
fcd55ae4-58c8-4fb0-9b60-eec06dd4b746,0.8846153846153846,fcd55ae4-58c8-4fb0-9b60-eec06dd4b746,Aral Tankstelle,ARAL,Beusselstraße,55,10553,Berlin,52.530853,13.328394,2014-03-18T16:45:31.000+01:00,{}
a30fba5d-ccbf-4609-a6a3-106dab6c7964,0.9411764705882353,a30fba5d-ccbf-4609-a6a3-106dab6c7964,Esso Station,ESSO,Kronacher Str. 65,"",96349,Steinwiesen,50.291448,11.452148,2014-03-18T16:45:31.000+01:00,{}
a2fc501e-5124-46c3-af5e-2b620d1d643e,0.75,a2fc501e-5124-46c3-af5e-2b620d1d643e,Fricke,AVIA,Frankfurter Weg,29,33106,Paderborn,51.6979,8.73234,2014-03-18T16:45:31.000+01:00,{}
a7281268-8ea5-41de-8394-6857092a10be,0.7586206896551724,a7281268-8ea5-41de-8394-6857092a10be,TotalEnergies Autohof Waldlaubersheim,TotalEnergies Autohof,Autohof an der BAB61,,55444,Waldlaubersheim,49.924245,7.824723,2014-03-18T16:45:31.000+01:00,{}
c46db4de-e85e-44e7-bcd4-8e7b2b8d43be,0.851063829787234,c46db4de-e85e-44e7-bcd4-8e7b2b8d43be,TotalEnergies Zeesen,TotalEnergies,Karl-Liebknecht-Str.,155,15711,Zeesen,52.2843,13.630328,2014-03-18T16:45:31.000+01:00,{}
fd9e51e6-6e86-4dc7-b296-2afc705e1cf9,0.8214285714285714,fd9e51e6-6e86-4dc7-b296-2afc705e1cf9,TotalEnergies Saarbruecken,TotalEnergies,Martin-Luther-Str.,21,66111,Saarbruecken,49.237582,7.004841,2014-03-18T16:45:31.000+01:00,{}
de27849f-a8f7-4766-a47c-024bb0ab5a6e,0.8235294117647058,de27849f-a8f7-4766-a47c-024bb0ab5a6e,EPT Unterwellenborn,EPT,Maxhüttenstraße,18,07333,Unterwellenborn,50.650178,11.437287,2023-07-31T20:01:17.000+02:00,{}
f98e66ee-52ea-4531-b624-ff5aab6e0be3,0.6363636363636364,f98e66ee-52ea-4531-b624-ff5aab6e0be3,Tankstelle Allendorf (Lumda),Roth- Energie,Treiser Straße,82,35469,Allendorf (Lumda),50.676155,8.81671,2017-04-01T00:00:27.000+02:00,{}
33af3d73-ce63-4b7d-a871-55a522b19ecb,0.8125,33af3d73-ce63-4b7d-a871-55a522b19ecb,Shell Kiel Knooper Weg 170,Shell,Knooper Weg,170,24105,Kiel,54.336425,10.131848,2014-03-18T16:45:31.000+01:00,"\"{\"\"openingTimes\"\":[{\"\"applicable_days\"\":255"
7ae6cbe4-24f7-4f18-8129-09c8a311fd30,0.8823529411764706,7ae6cbe4-24f7-4f18-8129-09c8a311fd30,"\"AJ \"\"G2WAF\"\"\"",Ahlert Junior,Gänsestraße,2,48231,Warendorf,51.92271,7.967623,2015-02-19T00:00:01.000+01:00,{}
38f98fa8-601b-47e8-a09e-a3c181f8bd5c,0.875,38f98fa8-601b-47e8-a09e-a3c181f8bd5c,Mike Manfred Terbeck,Westfalen,Werler Str.,238-240,59063,Hamm,51.66197,7.83439,2014-03-18T16:45:31.000+01:00,{}
ad525075-e15c-434e-a44b-65d2aefa4694,0.725,ad525075-e15c-434e-a44b-65d2aefa4694,Shell Haan Ginsterweg 35,Shell,Ginsterweg,35,42781,Haan,51.194081,6.981852,2014-03-18T16:45:31.000+01:00,"\"{\"\"overrides\"\":[{\"\"startp\"\":\"\"2025-01-01 09:00\"\""
d738b793-3085-44d5-9806-8fe48b2b2766,0.6382978723404256,d738b793-3085-44d5-9806-8fe48b2b2766,Shell Pinneberg Rellinger Str. 47-51,Shell,Rellinger Str.,47-51,25421,Pinneberg,53.64805,9.820803,2014-03-18T16:45:31.000+01:00,"\"{\"\"overrides\"\":[{\"\"startp\"\":\"\"2025-01-01 09:00\"\""
fb1027f5-2276-4108-a4e7-bac8771ce670,0.8235294117647058,fb1027f5-2276-4108-a4e7-bac8771ce670,Aral Tankstelle,ARAL,Haller Straße,5,74582,Gerabronn,49.247807,9.920046,2014-03-18T16:45:31.000+01:00,"\"{\"\"overrides\"\":[{\"\"startp\"\":\"\"2024-01-06 17:00\"\""
7aba81ed-e67c-4015-9d32-fac5682e826f,0.8076923076923077,7aba81ed-e67c-4015-9d32-fac5682e826f,Aral Tankstelle,ARAL,Amalienstraße,55/59,76133,Karlsruhe,49.009216,8.390873,2014-03-18T16:45:31.000+01:00,"\"{\"\"openingTimes\"\":[{\"\"applicable_days\"\":64"
1d32ac01-67df-4ae1-8452-675dba41815c,0.9615384615384616,1d32ac01-67df-4ae1-8452-675dba41815c,Aral Tankstelle,ARAL,Illerstraße,12,87527,Sonthofen,47.523716,10.262306,2014-03-18T16:45:31.000+01:00,"\"{\"\"openingTimes\"\":[{\"\"applicable_days\"\":96"
51e1c9a3-74f4-4981-92a0-f5fdc742c7a3,0.8235294117647058,51e1c9a3-74f4-4981-92a0-f5fdc742c7a3,Aral Tankstelle,ARAL,Hann. Heerstraße,44,29227,Celle,52.60928,10.075801,2014-03-18T16:45:31.000+01:00,{}
a986c849-68f7-438b-a7ec-40ed9b3a03ba,0.8125,a986c849-68f7-438b-a7ec-40ed9b3a03ba,Aral Tankstelle,ARAL,Maximilianallee,70,04129,Leipzig,51.3858,12.389745,2014-03-18T16:45:31.000+01:00,{}
5f60e969-3485-4d05-89c2-3857d16a987e,0.875,5f60e969-3485-4d05-89c2-3857d16a987e,Aral Tankstelle,ARAL,Hermannstraße,100,45964,Gladbeck,51.574673,6.982006,2014-03-18T16:45:31.000+01:00,{}
ed9193d2-4d00-4522-b677-a3b76a873609,0.6470588235294118,ed9193d2-4d00-4522-b677-a3b76a873609,Aral Tankstelle,ARAL,Luxemburger Straße,58,50354,Hürth,50.894855,6.905027,2014-03-18T16:45:31.000+01:00,{}
3837aa59-a657-4623-a67d-ddf2d837e4be,0.7288135593220338,3837aa59-a657-4623-a67d-ddf2d837e4be,Susanne Hagemeister,Shell,Dorfstr.,95,23815,Geschendorf,53.922521,10.453186,2014-03-18T16:45:31.000+01:00,"\"{\"\"openingTimes\"\":[{\"\"applicable_days\"\":32"
e1a15081-255c-9107-e040-0b0a3dfe563c,0.6666666666666666,e1a15081-255c-9107-e040-0b0a3dfe563c,"Castrop-Rauxel, Herner Str. 100",HEM,Herner Str.,100,44575,Castrop-Rauxel,51.550479,7.299336,2014-03-18T16:45:31.000+01:00,"\"{\"\"openingTimes\"\":[{\"\"applicable_days\"\":15"
c096ad7c-2d33-4863-9d17-f5951bb61957,0.8372093023255814,c096ad7c-2d33-4863-9d17-f5951bb61957,VR-Bank in Südniedersachsen eG,Raiffeisen,Bahnhofstraße,31,37339,Gernrode,51.3842,10.4135,2014-03-18T16:45:31.000+01:00,{}
983529d6-7912-43c6-9748-933d49159ca6,1.0,983529d6-7912-43c6-9748-933d49159ca6,BayWa Tankstelle Fürstenfeldbrück,BayWa,Hubertusstr.,1,82256,Fürstenfeldbrück,48.17844,11.23107,2014-03-18T16:45:31.000+01:00,{}
dd445625-f059-40b7-9b42-6166173b5c43,0.7368421052631579,dd445625-f059-40b7-9b42-6166173b5c43,AVIA XPress,AVIA XPress,Haller Straße,48,73494,Rosenberg,49.02095,10.02524,2014-03-18T16:45:31.000+01:00,{}
1dc7b325-a679-4c4d-837c-7ae628153f31,0.7878787878787878,1dc7b325-a679-4c4d-837c-7ae628153f31,OIL! Tankstelle Sprockhövel,OIL!,Schmiedestr. 38,,45549,Sprockhövel,51.3152,7.25,2014-03-18T16:45:31.000+01:00,"\"{\"\"openingTimes\"\":[{\"\"applicable_days\"\":192"
62ce68cd-3922-41d5-42d5-b167d3eab6b4,0.8611111111111112,62ce68cd-3922-41d5-42d5-b167d3eab6b4,Heek,SCORE,Stroot,4,48619,Heek,52.120697,7.093142,2024-09-27T22:52:19.000+02:00,"\"{\"\"openingTimes\"\":[{\"\"applicable_days\"\":31"
58e7a8b5-9e81-4623-9e84-5257309f67ec,0.8604651162790697,58e7a8b5-9e81-4623-9e84-5257309f67ec,Railand AG,Raiffeisen,Fuistingstraße,64 - 66,48683,Ahaus,52.08511,7.003804,2015-12-31T00:00:01.000+01:00,{}
76aac3fe-e28a-4385-9ecb-a0d70a684c2a,0.6666666666666666,76aac3fe-e28a-4385-9ecb-a0d70a684c2a,Raiffeisen Waren GmbH - TS Kerstenhausen,Raiffeisen,Frankfurter Str.,22,34582,Borken,51.06526,9.211956,2020-01-07T10:01:13.000+01:00,{}
9d96a1b7-777b-49de-90e2-c5b275c7a359,0.9444444444444444,9d96a1b7-777b-49de-90e2-c5b275c7a359,Esso Tankstelle,ESSO,KARL-EIBL-STR. 39,"",91413,NEUSTADT,49.577449,10.585467,2014-03-18T16:45:31.000+01:00,"\"{\"\"openingTimes\"\":[{\"\"applicable_days\"\":31"
fb0ef010-db2e-4152-a99e-7daba76ad08a,0.8461538461538461,fb0ef010-db2e-4152-a99e-7daba76ad08a,Esso Tankstelle,ESSO,MARTIN-LUTHER-STR. 18,"",45525,HATTINGEN,51.398788,7.178301,2014-03-18T16:45:31.000+01:00,{}
00837684-3cdf-4760-9315-96a2d678a575,0.7213114754098361,00837684-3cdf-4760-9315-96a2d678a575,Neunkirchen-Seelscheid,Mundorf Tank,Zeithstraße,76,53819,Neunkirchen-Seelscheid,50.865438,7.316823,2014-03-18T16:45:31.000+01:00,"\"{\"\"openingTimes\"\":[{\"\"applicable_days\"\":31"
8d4240a2-737f-4f94-82d6-764b55bd3891,0.9565217391304348,8d4240a2-737f-4f94-82d6-764b55bd3891,Sb Delmenhorst Stedingerstr. 95,SB,Stedingerstr.,95,27753,Delmenhorst,53.061147,8.631143,2014-10-16T00:00:01.000+02:00,"\"{\"\"openingTimes\"\":[{\"\"applicable_days\"\":192"
2bcc801e-8c9f-4559-afe0-70f2f3aed092,0.7619047619047619,2bcc801e-8c9f-4559-afe0-70f2f3aed092,Aral Tankstelle,ARAL,Hohenheimer Straße,49,70794,Filderstadt,48.659378,9.197765,2014-03-18T16:45:31.000+01:00,"\"{\"\"openingTimes\"\":[{\"\"applicable_days\"\":96"
959cab9f-e351-40dc-8167-ab6ad157d5f0,0.8275862068965517,959cab9f-e351-40dc-8167-ab6ad157d5f0,Ortepp,Ortlepp,Das Steinfeld,5,99869,Wandersleben,50.89048,10.8481,2020-09-29T16:01:18.000+02:00,{}
71ece425-39d9-473d-b456-3d8cbfadc39d,0.7368421052631579,71ece425-39d9-473d-b456-3d8cbfadc39d,Shell Geisenhausen Landshuter Str. 18,Shell,Landshuter Str.,18,84144,Geisenhausen,48.475258,12.255638,2014-03-18T16:45:31.000+01:00,"\"{\"\"overrides\"\":[{\"\"startp\"\":\"\"2025-01-01 10:00\"\""
51d4b4a4-a095-1aa0-e100-80009459e03a,0.78125,51d4b4a4-a095-1aa0-e100-80009459e03a,Supermarkt-Tankstelle ORANIENBURG FRIEDENSSTR. 3,Supermarkt-Tankstelle,FRIEDENSSTR.,3,16515,ORANIENBURG,52.75014,13.22645,2014-03-18T16:45:31.000+01:00,"\"{\"\"openingTimes\"\":[{\"\"applicable_days\"\":31"
cd8b8686-d646-1ed5-9f85-9d6d5257cb2f,1.0,cd8b8686-d646-1ed5-9f85-9d6d5257cb2f,JET STRALSUND HEINRICH-HEINE-RING 98,JET,HEINRICH-HEINE-RING,98,18435,STRALSUND,54.32737,13.06185,2015-10-27T00:00:01.000+01:00,{}
51d4b4a1-a095-1aa0-e100-80009459e03a,0.9565217391304348,51d4b4a1-a095-1aa0-e100-80009459e03a,JET KAUFBEUREN FUESSENER STR. 27,JET,FUESSENER STR.,27,87600,KAUFBEUREN,47.87035,10.62913,2014-03-18T16:45:31.000+01:00,"\"{\"\"openingTimes\"\":[{\"\"applicable_days\"\":63"
cd8b8686-41dc-1ed4-bd86-5c67cfd804c7,0.9666666666666667,cd8b8686-41dc-1ed4-bd86-5c67cfd804c7,JET LEIMEN IM HAGEN 2,JET,IM HAGEN,2,69181,LEIMEN,49.35443,8.67911,2015-05-07T00:00:01.000+02:00,"\"{\"\"openingTimes\"\":[{\"\"applicable_days\"\":63"
51d4b4bc-a095-1aa0-e100-80009459e03a,0.8928571428571429,51d4b4bc-a095-1aa0-e100-80009459e03a,JET PFEDELBACH DIESELSTR. 1,JET,DIESELSTR.,1,74629,PFEDELBACH,49.18395,9.49914,2014-03-18T16:45:31.000+01:00,"\"{\"\"openingTimes\"\":[{\"\"applicable_days\"\":31"
51d4b4fc-a095-1aa0-e100-80009459e03a,0.6774193548387096,51d4b4fc-a095-1aa0-e100-80009459e03a,JET WALTROP LEVERINGHAEUSER STR. 67,JET,LEVERINGHAEUSER STR.,67,45731,WALTROP,51.61628,7.39403,2014-03-18T16:45:31.000+01:00,"\"{\"\"openingTimes\"\":[{\"\"applicable_days\"\":31"
ef010984-c357-4f7a-8a40-e6e38a606a3f,0.78125,ef010984-c357-4f7a-8a40-e6e38a606a3f,Sprint Neu Lübbenau Hauptstr.,Sprint,Hauptstr.,20,15910,Neu Lübbenau,52.075016,13.894423,2014-03-18T16:45:31.000+01:00,"\"{\"\"openingTimes\"\":[{\"\"applicable_days\"\":31"
2e320dd2-e453-4fb9-9fdb-122873f39626,1.0,2e320dd2-e453-4fb9-9fdb-122873f39626,TotalEnergies Schwarzach,TotalEnergies,Hauptstr.,72,74869,Schwarzach,49.366603,8.981484,2014-03-18T16:45:31.000+01:00,"\"{\"\"openingTimes\"\":[{\"\"applicable_days\"\":31"
734b65b5-5424-425d-bd30-199891621702,0.6285714285714286,734b65b5-5424-425d-bd30-199891621702,Elan Xpress Wuppertal,ELAN Xpress,Hofkamp,45,42103,Wuppertal,51.259071,7.151105,2023-02-21T20:01:18.000+01:00,"\"{\"\"openingTimes\"\":[{\"\"applicable_days\"\":127"
4c3afa3d-7f03-4c43-bf53-e089ed917c1c,0.7317073170731707,4c3afa3d-7f03-4c43-bf53-e089ed917c1c,WIKING Tolk,WIKING,Eckernförder Str.,9,24894,Tolk,54.57704,9.642,2018-01-19T23:30:07.000+01:00,"\"{\"\"openingTimes\"\":[{\"\"applicable_days\"\":31"
49e6f3e8-55ce-40b7-8108-add0f2a2b126,0.7837837837837838,49e6f3e8-55ce-40b7-8108-add0f2a2b126,Access Tankstelle Dillenburg,Access,Kasseler Str. B253,,35683,Dillenburg,50.749561,8.276969,2019-03-14T23:30:06.000+01:00,"\"{\"\"openingTimes\"\":[{\"\"applicable_days\"\":63"
bf50778a-8e7c-479a-8e6c-0679b991dc98,1.0,bf50778a-8e7c-479a-8e6c-0679b991dc98,TotalEnergies Kenzingen,TotalEnergies,Offenburger Str.,22,79341,Kenzingen,48.195576,7.773943,2014-03-18T16:45:31.000+01:00,"\"{\"\"openingTimes\"\":[{\"\"applicable_days\"\":31"
14f42c1a-7a61-4d3d-99d4-6fca873ee012,0.7727272727272727,14f42c1a-7a61-4d3d-99d4-6fca873ee012,AVIA Tankstelle,AVIA,Stuttgarter Str.,41,72654,Neckartenzlingen,48.5939089,9.2366328,2022-07-23T00:01:22.000+02:00,"\"{\"\"openingTimes\"\":[{\"\"applicable_days\"\":31"
9744800e-86f0-4dc4-91a1-87a0300f6659,0.8666666666666667,9744800e-86f0-4dc4-91a1-87a0300f6659,Shell Nördlingen Herlinstr. 2 A,Shell,Herlinstr.,2 A,86720,Nördlingen,48.847527,10.492271,2014-03-18T16:45:31.000+01:00,"\"{\"\"overrides\"\":[{\"\"startp\"\":\"\"2025-01-01 13:00\"\""
536dad71-e074-4130-be14-696c598e2eb1,0.8181818181818182,536dad71-e074-4130-be14-696c598e2eb1,Shell Hutthurm Am Kreisel 4,Shell,Am Kreisel,4,94116,Hutthurm,48.669231,13.484234,2014-03-18T16:45:31.000+01:00,"\"{\"\"overrides\"\":[{\"\"startp\"\":\"\"2024-12-31 04:00\"\""
5f2ffc28-172d-4656-8ae5-6493a28a35d5,0.90625,5f2ffc28-172d-4656-8ae5-6493a28a35d5,Shell Buxtehude Harburger Str. 13,Shell,Harburger Str.,13,21614,Buxtehude,53.478085,9.705485,2014-03-18T16:45:31.000+01:00,{}
a0e0c049-95e4-45e1-a0ed-bd6173bcc775,0.7105263157894737,a0e0c049-95e4-45e1-a0ed-bd6173bcc775,Shell Eschborn Zeilsheimer Weg 1,Shell,Zeilsheimer Weg,1,65760,Eschborn,50.139544,8.564624,2014-03-18T16:45:31.000+01:00,"\"{\"\"openingTimes\"\":[{\"\"applicable_days\"\":192"
a5ef3925-7cc3-4150-a87b-460ad8beaeed,0.6808510638297872,a5ef3925-7cc3-4150-a87b-460ad8beaeed,Shell Habichtswald Gewerbepark 7,Shell,Gewerbepark,7,34317,Habichtswald,51.328961,9.313479,2014-03-18T16:45:31.000+01:00,"\"{\"\"openingTimes\"\":[{\"\"applicable_days\"\":224"
6410241a-24a1-4dec-a66a-ba3f3c6ea510,0.7804878048780488,6410241a-24a1-4dec-a66a-ba3f3c6ea510,Shell Mönchengladbach 2 Rheydt Odenkirchenerstr 160,Shell,Odenkirchenerstr,160,41236,Mönchengladbach 2 Rheydt,51.158948,6.446395,2014-03-18T16:45:31.000+01:00,"\"{\"\"overrides\"\":[{\"\"startp\"\":\"\"2025-01-01 10:00\"\""
ce85a852-d143-4f05-a2d9-ca133735d293,0.625,ce85a852-d143-4f05-a2d9-ca133735d293,Shell Dessau-Rosslau Oranienbaumer Chaussee 3,Shell,Oranienbaumer Chaussee,3,06844,Dessau-Rosslau,51.833714,12.258461,2014-03-18T16:45:31.000+01:00,{}
64c8fc51-5476-4dbb-b7b3-b553ad84639a,0.896551724137931,64c8fc51-5476-4dbb-b7b3-b553ad84639a,Aral Tankstelle,ARAL,Augsburger Straße,32,87600,Kaufbeuren,47.88454,10.636712,2014-03-18T16:45:31.000+01:00,"\"{\"\"openingTimes\"\":[{\"\"applicable_days\"\":64"
604f53f3-d8a2-4c62-a8df-8aa37d65b4cd,1.0,604f53f3-d8a2-4c62-a8df-8aa37d65b4cd,Aral Tankstelle,ARAL,Auricher Straße,216,26721,Emden,53.391056,7.207846,2014-03-18T16:45:31.000+01:00,"\"{\"\"openingTimes\"\":[{\"\"applicable_days\"\":64"
5741629b-92a8-4a69-878a-e9b496a65dfa,0.6938775510204082,5741629b-92a8-4a69-878a-e9b496a65dfa,Aral Tankstelle,ARAL,Georg-Brauchle-Ring,27,80992,München,48.176105,11.535616,2014-03-18T16:45:31.000+01:00,{}
528bf776-4c5e-4ccb-a3ee-3555b57b384c,0.8181818181818182,528bf776-4c5e-4ccb-a3ee-3555b57b384c,Aral Tankstelle,ARAL,Ziolkowskistraße,14,39126,Magdeburg,52.175453,11.629103,2014-03-18T16:45:31.000+01:00,{}
3aeed500-8dda-4bd8-be55-d13e415e81b1,0.9310344827586207,3aeed500-8dda-4bd8-be55-d13e415e81b1,Aral Tankstelle,ARAL,In der Schwärzgrub,20,55774,Baumholder,49.60933,7.328758,2014-03-18T16:45:31.000+01:00,"\"{\"\"openingTimes\"\":[{\"\"applicable_days\"\":64"
96d1f782-fe33-4280-898b-9c23a63812bd,0.6666666666666666,96d1f782-fe33-4280-898b-9c23a63812bd,WINDSBACH - ANSBACHER STRASSE 34,AGIP ENI,Ansbacher Strasse,34,91575,Windsbach,49.245914289504,10.823092867323,2014-03-20T00:00:01.000+01:00,"\"{\"\"openingTimes\"\":[{\"\"applicable_days\"\":255"
175c2a28-fa54-49c7-ba79-d2373f9f2223,1.0,175c2a28-fa54-49c7-ba79-d2373f9f2223,Jürgen Görg,ED,Bleichstraße,47,56130,Bad Ems,50.337852,7.714615,2014-03-18T16:45:31.000+01:00,"\"{\"\"overrides\"\":[{\"\"startp\"\":\"\"2024-12-31 07:00\"\""
abc1c183-ffd3-4045-8142-78578d16207b,0.896551724137931,abc1c183-ffd3-4045-8142-78578d16207b,"Hermann-Ehlers-Str. 42, 49082 Osnabrück",Freie Tankstelle,Hermann-Ehlers-Str.,42,49082,Osnabrück,52.233088,8.021987,2014-03-18T16:45:31.000+01:00,"\"{\"\"openingTimes\"\":[{\"\"applicable_days\"\":31"
cc82ee93-f0b5-423c-a4d0-f69f1b818326,1.0,cc82ee93-f0b5-423c-a4d0-f69f1b818326,Halfmann Mineralöl GmbH & Co. KG,Halfmann Mineralöl GmbH & Co. KG,Hauptstrasse,70,33154,Salzkotten-Verne,51.683098,8.561583,2016-02-03T00:00:01.000+01:00,"\"{\"\"overrides\"\":[{\"\"startp\"\":\"\"2024-12-31 13:00\"\""
5d741887-fc4b-5ce6-8cf7-eee12de54b8a,1.0,5d741887-fc4b-5ce6-8cf7-eee12de54b8a,Schrobenhausen,Hoyer,Pöttmeser Str.,25,86529,Schrobenhausen,48.56407165527,11.25310707092,2023-12-08T00:37:18.000+01:00,{}
5739c201-6a57-4f26-b8e6-06d1f81e0620,0.5454545454545454,5739c201-6a57-4f26-b8e6-06d1f81e0620,Tankstelle Kern,,Saarbrückerstr.,95,66625,Nohfelden,49.57426,7.10894,2014-03-18T16:45:31.000+01:00,{}
02a620fa-1354-45ec-a606-c3f2f968855d,0.675,02a620fa-1354-45ec-a606-c3f2f968855d,"Nürnberg, Erlanger Strasse 103",HEM,Erlanger Strasse,103,90425,Nürnberg,49.480629,11.060289,2020-11-27T12:01:19.000+01:00,"\"{\"\"openingTimes\"\":[{\"\"applicable_days\"\":127"
ca131dcb-df66-42b2-add3-8bb6e6cbb0ef,0.8,ca131dcb-df66-42b2-add3-8bb6e6cbb0ef,Sb Herne Heerstr. 43a,SB,Heerstr.,43a,44653,Herne,51.5452,7.17041,2014-03-18T16:45:31.000+01:00,"\"{\"\"openingTimes\"\":[{\"\"applicable_days\"\":192"
32f9a3b8-d941-42f5-9536-0fd42e0bbf19,1.0,32f9a3b8-d941-42f5-9536-0fd42e0bbf19,Altländer Obst eG,Raiffeisen,Osterminnerweg,20,21635,Jork,53.52924,9.688558,2014-03-18T16:45:31.000+01:00,{}
6151509b-91c5-43fe-ed78-a5196b38888c,0.8035714285714286,6151509b-91c5-43fe-ed78-a5196b38888c,Holtland,SCORE,Leeraner Str.,7,26835,Holtland,53.279097,7.573188,2014-03-18T16:45:31.000+01:00,"\"{\"\"openingTimes\"\":[{\"\"applicable_days\"\":31"
44b47a21-7ab6-47e2-9ff8-7e6e23f2895e,0.8095238095238095,44b47a21-7ab6-47e2-9ff8-7e6e23f2895e,ENI,AGIP ENI,Illinger Eck / Muehlacker Str.,48,75428,Illingen,48.953286630651,8.912651405019,2014-03-20T00:00:01.000+01:00,{}
849e4d77-c26d-4507-8030-c0fa4650dc48,0.9047619047619048,849e4d77-c26d-4507-8030-c0fa4650dc48,TotalEnergies Neumuenster,TotalEnergies,Wasbeker Str.,361,24537,Neumuenster,54.06848,9.937957,2014-03-18T16:45:31.000+01:00,{}
