station_uuid,durchschnitt_aenderung,uuid,name,brand,street,house_number,post_code,city,latitude,longitude,first_active,openingtimes_json
02a1baf8-6126-49a8-951f-8e6c1c4b9aa6,0.7446808510638298,02a1baf8-6126-49a8-951f-8e6c1c4b9aa6,Sdrenka GmbH,,Hertener Str.,52,45701,Herten,51.5994263,7.096805,2014-03-18T16:45:31.000+01:00,"\"{\"\"openingTimes\"\":[{\"\"applicable_days\"\":31"
7f56130a-9a04-47cf-bfb5-c5955616aa64,0.7777777777777778,7f56130a-9a04-47cf-bfb5-c5955616aa64,TotalEnergies Autohof Magdeburg,TotalEnergies Autohof,Glindenberger Weg,3,39126,Magdeburg,52.211288,11.670514,2014-03-18T16:45:31.000+01:00,{}
26f58c0d-94e5-45db-935a-8ecf9870d8f6,0.9393939393939394,26f58c0d-94e5-45db-935a-8ecf9870d8f6,Sb Eisleben Rathenaustr. 13d,SB,Rathenaustr.,13d,06295,Eisleben,51.521206,11.557465,2014-03-18T16:45:31.000+01:00,{}
934302f5-b6b6-4058-bfe9-facec59b706b,0.7317073170731707,934302f5-b6b6-4058-bfe9-facec59b706b,Hämelerwald,SCORE,Hermesstr.,2,31275,Lehrte,52.357357,10.117162,2014-03-18T16:45:31.000+01:00,"\"{\"\"overrides\"\":[{\"\"startp\"\":\"\"2024-12-31 06:00\"\""
005056ba-7cb6-1ed2-bceb-65ef408c0d1d,0.7586206896551724,005056ba-7cb6-1ed2-bceb-65ef408c0d1d,ORLEN Tankstelle,ORLEN,Köllner Chaussee,98,25337,Elmshorn,53.755285,9.680767,2014-03-18T16:45:31.000+01:00,"\"{\"\"overrides\"\":[{\"\"startp\"\":\"\"2024-12-31 05:30\"\""
99d06991-ee2b-46c0-b81a-98dbe0c7eee3,0.6808510638297872,99d06991-ee2b-46c0-b81a-98dbe0c7eee3,Shell Bremen Osterholzer Heerstr. 222,Shell,Osterholzer Heerstr.,222,28325,Bremen,53.057735,8.962569,2014-03-18T16:45:31.000+01:00,{}
a23b074d-5ae8-4ebb-8e27-b4edb3128959,0.9354838709677419,a23b074d-5ae8-4ebb-8e27-b4edb3128959,Aral Tankstelle,ARAL,Kranichfelder Straße,2,99097,Erfurt,50.958447,11.053105,2014-03-18T16:45:31.000+01:00,{}
5603b5cf-e657-44a5-87d8-e0dfd141e313,0.6785714285714286,5603b5cf-e657-44a5-87d8-e0dfd141e313,Aral Tankstelle,ARAL,Gilchingerstraße,31,82239,Alling,48.1381,11.299389,2014-03-18T16:45:31.000+01:00,"\"{\"\"openingTimes\"\":[{\"\"applicable_days\"\":64"
5b9216c3-a1bb-4e15-929b-696b8d9fbbf4,0.7959183673469388,5b9216c3-a1bb-4e15-929b-696b8d9fbbf4,Aral Tankstelle,ARAL,Elmshorner Straße,36,25524,Itzehoe,53.905807,9.507933,2014-03-18T16:45:31.000+01:00,{}
63981d4f-ee3c-442a-9e60-930aa69f2cad,0.9393939393939394,63981d4f-ee3c-442a-9e60-930aa69f2cad,Aral Tankstelle,ARAL,Miesbacher Straße,33,83607,Holzkirchen,47.875805,11.710166,2014-03-18T16:45:31.000+01:00,{}
dea32847-27c8-4f69-aff8-e56a6b918a12,0.8888888888888888,dea32847-27c8-4f69-aff8-e56a6b918a12,Aral Tankstelle,ARAL,Gaustraße,156,67549,Worms,49.646156,8.349439,2014-03-18T16:45:31.000+01:00,"\"{\"\"openingTimes\"\":[{\"\"applicable_days\"\":64"
8957353c-bf6d-42b5-871f-e41e8f1e9090,0.6296296296296297,8957353c-bf6d-42b5-871f-e41e8f1e9090,Sb Moers Kleverstr. 23,SB,Kleverstr.,23,47441,Moers,51.452387,6.637729,2014-09-11T00:00:01.000+02:00,"\"{\"\"openingTimes\"\":[{\"\"applicable_days\"\":255"
5f0ce419-4e72-4bb2-ad44-7c0fe45d0910,0.8571428571428571,5f0ce419-4e72-4bb2-ad44-7c0fe45d0910,SEELBACH - HAUPTSTR. 57,AGIP ENI,Hauptstr.,57,77960,Seelbach,48.315761090412,7.93853568604,2014-03-20T00:00:01.000+01:00,"\"{\"\"openingTimes\"\":[{\"\"applicable_days\"\":31"
e1a15081-250e-9107-e040-0b0a3dfe563c,0.7407407407407407,e1a15081-250e-9107-e040-0b0a3dfe563c,"Gardelegen, Jävenitzer Str. 31",HEM,Jävenitzer Str.,31,39638,Gardelegen,52.452352,11.489185,2014-03-18T16:45:31.000+01:00,"\"{\"\"openingTimes\"\":[{\"\"applicable_days\"\":127"
6425f56e-23a7-43cc-9f55-7baaac9bdc80,0.6666666666666666,6425f56e-23a7-43cc-9f55-7baaac9bdc80,Globus Handelshof St. Wendel GmbH & Co. KG Betriebsstätte Zell,Globus SB Warenhaus,Fliehburgstr.,18,56856,Zell,50.02864,7.15655,2014-03-18T16:45:31.000+01:00,{}
f1251e4c-647f-43cf-9654-345961cce015,0.7115384615384616,f1251e4c-647f-43cf-9654-345961cce015,Autohaus Rickmeier GmbH,Freie Tankstelle,Meinbrexer Str.,5,37697,Lauenförde,51.66512298584,9.3859205245972,2020-02-12T14:01:14.000+01:00,{}
005056ba-7cb6-1ed2-bceb-711467cc4d23,0.7428571428571429,005056ba-7cb6-1ed2-bceb-711467cc4d23,ORLEN Tankstelle,ORLEN,Bochumer Landstraße,184,45276,Essen,51.447228,7.092898,2014-03-18T16:45:31.000+01:00,"\"{\"\"overrides\"\":[{\"\"startp\"\":\"\"2024-12-31 05:30\"\""
36d5f922-89ce-4752-98ec-589b1421ebe7,1.0,36d5f922-89ce-4752-98ec-589b1421ebe7,AVIA Tankstelle,AVIA,Münchner Str.,45,85221,Dachau,48.2518019,11.4411667,2022-07-22T00:01:23.000+02:00,"\"{\"\"openingTimes\"\":[{\"\"applicable_days\"\":31"
b5ca6397-d5ec-4c30-bee1-b154a43d13ef,0.9629629629629629,b5ca6397-d5ec-4c30-bee1-b154a43d13ef,MSS-VARO Energy Direct Helmepark,MSS-VARO Energy,Auenweg,2,06526,Sangerhausen,51.461305,11.268073,2020-10-06T14:01:18.000+02:00,{}
805ebe8f-162f-40fc-b9b9-84805c64f044,0.8809523809523809,805ebe8f-162f-40fc-b9b9-84805c64f044,Esso Tankstelle,ESSO,SCHWARZER WEG 23,"",31224,PEINE,52.328002,10.234331,2014-03-18T16:45:31.000+01:00,"\"{\"\"openingTimes\"\":[{\"\"applicable_days\"\":31"
682129dc-98f9-4055-b88f-37083050559a,0.9705882352941176,682129dc-98f9-4055-b88f-37083050559a,Esso Tankstelle,ESSO,AARSTR. 57,"",65623,HAHNSTAETTEN,50.302859,8.064331,2014-03-18T16:45:31.000+01:00,"\"{\"\"openingTimes\"\":[{\"\"applicable_days\"\":31"
9f2b85c2-f137-4f96-b4e4-240bd3bfdc8b,0.9090909090909091,9f2b85c2-f137-4f96-b4e4-240bd3bfdc8b,Esso Tankstelle,ESSO,UERDINGER STR. 8,"",40668,MEERBUSCH,51.303487,6.671054,2014-03-18T16:45:31.000+01:00,"\"{\"\"openingTimes\"\":[{\"\"applicable_days\"\":127"
c647002c-f810-4e13-b2bd-4bc818fbe632,0.8536585365853658,c647002c-f810-4e13-b2bd-4bc818fbe632,Esso Tankstelle,ESSO,FREIBURGER STR. 27,"",79183,WALDKIRCH,48.090215,7.952475,2014-03-18T16:45:31.000+01:00,"\"{\"\"openingTimes\"\":[{\"\"applicable_days\"\":31"
aacf721b-b3a7-41b9-9e71-14db4e1caffa,0.9047619047619048,aacf721b-b3a7-41b9-9e71-14db4e1caffa,TotalEnergies Usingen,TotalEnergies,Weilburger Str.,30-33,61250,Usingen,50.340076,8.534939,2014-03-18T16:45:31.000+01:00,"\"{\"\"openingTimes\"\":[{\"\"applicable_days\"\":31"
19a63af8-7a51-434f-b16e-162b8785a562,0.8,19a63af8-7a51-434f-b16e-162b8785a562,AVIA Tankstelle,AVIA,Bahnhofstraße,102,40883,Ratingen,51.33346,6.90406,2014-03-18T16:45:31.000+01:00,"\"{\"\"overrides\"\":[{\"\"startp\"\":\"\"2024-12-31 08:00\"\""
51d4b605-a095-1aa0-e100-80009459e03a,0.84,51d4b605-a095-1aa0-e100-80009459e03a,Supermarkt-Tankstelle WERDAU OT STEINPLEIS STIFTSTR. 6-8,Supermarkt-Tankstelle,STIFTSTR.,6-8,08412,WERDAU OT STEINPLEIS,50.71197,12.41651,2014-03-18T16:45:31.000+01:00,"\"{\"\"openingTimes\"\":[{\"\"applicable_days\"\":31"
005056ba-7cb6-1ed2-bceb-67c79e1bcd1f,0.8275862068965517,005056ba-7cb6-1ed2-bceb-67c79e1bcd1f,star Tankstelle,STAR,Dürener Straße,99,50171,Kerpen,50.86121,6.64465,2014-03-18T16:45:31.000+01:00,"\"{\"\"overrides\"\":[{\"\"startp\"\":\"\"2025-01-01 08:00\"\""
51d4b4f3-a095-1aa0-e100-80009459e03a,0.6538461538461539,51d4b4f3-a095-1aa0-e100-80009459e03a,JET ROSTOCK SATOWER STR. 10 A,JET,SATOWER STR.,10 A,18059,ROSTOCK,54.07558,12.09403,2014-03-18T16:45:31.000+01:00,"\"{\"\"openingTimes\"\":[{\"\"applicable_days\"\":255"
51d4b437-a095-1aa0-e100-80009459e03a,0.72,51d4b437-a095-1aa0-e100-80009459e03a,JET OBERASBACH ROTHENBURGER STR. 33,JET,ROTHENBURGER STR.,33,90522,OBERASBACH,49.43492,10.97311,2014-03-18T16:45:31.000+01:00,{}
7b180006-0b91-4e21-97b7-b5a6044e4e8e,0.7037037037037037,7b180006-0b91-4e21-97b7-b5a6044e4e8e,Sprint Alsleben Wiesenberg,Sprint,Wiesenberg,1,06425,Alsleben,51.70538,11.665161,2015-01-24T00:00:01.000+01:00,{}
4bd203b6-55da-44aa-ab20-6671c382bae7,0.6666666666666666,4bd203b6-55da-44aa-ab20-6671c382bae7,Bayerischer Wald Nord,ESSO,"BAB A3, Stetten",7a,94336,Hunderdorf,48.931488,12.70785,2014-03-18T16:45:31.000+01:00,{}
3aacd52d-f232-4424-9142-ef86a1275032,0.75,3aacd52d-f232-4424-9142-ef86a1275032,Schillhorn-Hanerau,Schillhorn Tankstelle,Mannhardtstraße,8a,25557,Hanerau-Hademarschen,54.121777072554,9.4281793866884,2015-02-05T00:00:01.000+01:00,{}
586e54a2-ec9e-4937-942d-930be34670ed,0.8333333333333334,586e54a2-ec9e-4937-942d-930be34670ed,Automatentankstelle,Markant (Tankautomat),Rheiner Str.,121,48282,Emsdetten,52.182193,7.520861,2023-10-19T23:54:41.000+02:00,{}
96466386-58fd-443a-ae19-db29eab2076e,0.8275862068965517,96466386-58fd-443a-ae19-db29eab2076e,RLB Raiffeisen-Landbund eG,Raiffeisen-Landbund eG,Warteweg,6,37627,Stadtoldendorf,51.87944,9.618098,2014-03-18T16:45:31.000+01:00,{}
b44f5bd3-104d-4f61-8e5f-598de9bc7eec,0.9047619047619048,b44f5bd3-104d-4f61-8e5f-598de9bc7eec,CLASSIC Leck,CLASSIC,Flensburger Str.,2,25917,Leck,54.77,8.97692,2014-03-18T16:45:31.000+01:00,"\"{\"\"overrides\"\":[{\"\"startp\"\":\"\"2024-12-31 06:30\"\""
fef4d9b4-e28e-4fb1-8dbf-78d99577269a,0.9,fef4d9b4-e28e-4fb1-8dbf-78d99577269a,CLASSIC Villingen,CLASSIC,Berliner Str.,3,78048,Villingen - Schwenningen,48.06979,8.44923,2015-10-16T00:00:02.000+02:00,"\"{\"\"overrides\"\":[{\"\"startp\"\":\"\"2024-12-31 06:00\"\""
26568d95-0aeb-479b-8e2d-a033351f4e88,0.8571428571428571,26568d95-0aeb-479b-8e2d-a033351f4e88,Tankcenter Hilter,Tankcenter,Bielefelder Str.,3,49176,Hilter,52.13868,8.14669,2014-03-18T16:45:31.000+01:00,"\"{\"\"openingTimes\"\":[{\"\"applicable_days\"\":63"
7c0294a0-0268-4b4f-a5f4-6a2129a9116a,0.96,7c0294a0-0268-4b4f-a5f4-6a2129a9116a,TotalEnergies Frankenthal,TotalEnergies,Foltzring,38-40,67227,Frankenthal,49.537769,8.359031,2014-03-18T16:45:31.000+01:00,"\"{\"\"openingTimes\"\":[{\"\"applicable_days\"\":63"
944d2525-4cb4-4a53-9cbe-d80f6a9bbd3a,0.9565217391304348,944d2525-4cb4-4a53-9cbe-d80f6a9bbd3a,TotalEnergies Durach,TotalEnergies,Fuessener Str.,2A,87471,Durach,47.699386,10.3415,2014-03-18T16:45:31.000+01:00,"\"{\"\"openingTimes\"\":[{\"\"applicable_days\"\":127"
aee50752-10b5-42c2-9ea6-f7b87fa66b40,0.7333333333333333,aee50752-10b5-42c2-9ea6-f7b87fa66b40,bft Volkmarsen,bft,Arolser Strasse,48,34471,Volkmarsen,51.404366,9.111185,2014-03-18T16:45:31.000+01:00,"\"{\"\"openingTimes\"\":[{\"\"applicable_days\"\":64"
8485d9a1-fb9b-476e-9cc3-17d00dcdcee0,0.85,8485d9a1-fb9b-476e-9cc3-17d00dcdcee0,Globus Handelshof St. Wendel GmbH & Co. KG Betriebsstätte Güdingen,Globus SB Warenhaus,Wolfsau,4,66130,Saarbrücken,49.20958,7.02703,2014-03-18T16:45:31.000+01:00,{}
607368ed-f5b9-4d12-959c-0dbe141f8394,0.7037037037037037,607368ed-f5b9-4d12-959c-0dbe141f8394,Walther Tankstelle,bft - Walther,Alte Bahnhofstr.,4,97422,Schweinfurt,50.046,10.2416,2014-05-16T00:00:01.000+02:00,{}
26800c43-f98c-4562-b86b-edb4615cda1c,0.8918918918918919,26800c43-f98c-4562-b86b-edb4615cda1c,Shell Stralsund Richtenberger Chaussee 56,Shell,Richtenberger Chaussee,56,18437,Stralsund,54.297464,13.059548,2014-03-18T16:45:31.000+01:00,"\"{\"\"openingTimes\"\":[{\"\"applicable_days\"\":224"
4afdf88e-1cd4-41e7-b9ab-8605b78f55dc,0.90625,4afdf88e-1cd4-41e7-b9ab-8605b78f55dc,Shell Immendingen Schwarzwaldstr. 90,Shell,Schwarzwaldstr.,90,78194,Immendingen,47.934931,8.719004,2014-03-18T16:45:31.000+01:00,"\"{\"\"openingTimes\"\":[{\"\"applicable_days\"\":192"
2d946631-f38b-403e-88f5-99d4ace480df,0.8333333333333334,2d946631-f38b-403e-88f5-99d4ace480df,Shell Flensburg Friesische Str. 191,Shell,Friesische Str.,191,24937,Flensburg,54.778006,9.41502,2014-03-18T16:45:31.000+01:00,"\"{\"\"openingTimes\"\":[{\"\"applicable_days\"\":255"
5cfaaad2-d3bb-4661-9e7f-2f821f4e50f6,0.8378378378378378,5cfaaad2-d3bb-4661-9e7f-2f821f4e50f6,Shell Stuttgart Benzenäcker Str. 2,Shell,Benzenäcker Str.,2,70378,Stuttgart,48.830785,9.221513,2014-03-18T16:45:31.000+01:00,"\"{\"\"overrides\"\":[{\"\"startp\"\":\"\"2024-12-31 06:00\"\""
5c63b4f0-1a6b-4a73-b7dc-c125c6cd3d66,0.8648648648648649,5c63b4f0-1a6b-4a73-b7dc-c125c6cd3d66,Shell Stuttgart Burgstallstr. 122,Shell,Burgstallstr.,122,70199,Stuttgart,48.755543,9.142012,2014-03-18T16:45:31.000+01:00,{}
3e17a2ae-db29-425f-895d-f841d817309a,0.9642857142857143,3e17a2ae-db29-425f-895d-f841d817309a,Aral Tankstelle,ARAL,Potsdamer Straße,55,14469,Potsdam,52.41958,13.012795,2014-03-18T16:45:31.000+01:00,{}
6fcc6c05-0012-413b-9bdf-87f1bd67c1d2,0.7111111111111111,6fcc6c05-0012-413b-9bdf-87f1bd67c1d2,Aral Tankstelle,ARAL,Kennedydamm,200 Ost,31135,Hildesheim,52.17952,9.964843,2014-03-18T16:45:31.000+01:00,{}
88573473-8347-4450-a902-b27ec698a0eb,0.9166666666666666,88573473-8347-4450-a902-b27ec698a0eb,ENI,AGIP ENI,Äuss.Zwickauer Str.,16-20,09350,Lichtenstein,50.752736443967,12.621101927857,2014-03-20T00:00:01.000+01:00,"\"{\"\"openingTimes\"\":[{\"\"applicable_days\"\":31"
35b44c1e-1d18-463c-adf0-27fa684ffc91,0.7714285714285715,35b44c1e-1d18-463c-adf0-27fa684ffc91,Esso Station,ESSO,Siemensstr. 19,"",84030,Landshut,48.556646,12.153395,2014-03-18T16:45:31.000+01:00,{}
4a560453-e93f-40e9-9d05-4df1408aafc5,0.9333333333333333,4a560453-e93f-40e9-9d05-4df1408aafc5,Esso Station,ESSO,Windsbacher Str. 39,"",91174,Spalt,49.177487,10.91805,2014-03-18T16:45:31.000+01:00,{}
ad6243de-0e10-4519-8c22-e664b9f5d7ad,0.8695652173913043,ad6243de-0e10-4519-8c22-e664b9f5d7ad,Raiffeisen Vital eG,Raiffeisen,Kornhausstr.,11,57392,Gleidorf,51.166183,8.31005,2014-03-18T16:45:31.000+01:00,{}
86d2614a-a537-4c8f-a288-0354495ad219,1.0,86d2614a-a537-4c8f-a288-0354495ad219,TROSTBERG - BAYERNSTRASSE 4,AGIP ENI,Bayernstrasse,4,83308,Trostberg,48.027070698248,12.556434002044,2014-03-20T00:00:01.000+01:00,"\"{\"\"openingTimes\"\":[{\"\"applicable_days\"\":31"
76a9ca5e-534c-4620-ac53-3d012d112e01,0.9642857142857143,76a9ca5e-534c-4620-ac53-3d012d112e01,Bft St. Ingbert,BFT,Ensheimer Str.,162,66386,St. Ingbert,49.2623,7.10307,2014-03-18T16:45:31.000+01:00,"\"{\"\"openingTimes\"\":[{\"\"applicable_days\"\":63"
961351cb-a3c3-4903-9a52-23a7c9be06f3,0.7428571428571429,961351cb-a3c3-4903-9a52-23a7c9be06f3,Access Station Stuttgart,Access,Seerosenstr.,48,70563,Stuttgart,48.733693,9.106895,2014-03-18T16:45:31.000+01:00,"\"{\"\"openingTimes\"\":[{\"\"applicable_days\"\":31"
197a2371-2190-40c8-b899-67136a2cd51b,0.8076923076923077,197a2371-2190-40c8-b899-67136a2cd51b,Jochen Stoll,Esso,Hauptstr.,8,67724,Gehrweiler,49.574,7.775,2014-03-18T16:45:31.000+01:00,{}
8bea3fd6-d1a2-4fb1-d960-56f1a392efe2,0.7916666666666666,8bea3fd6-d1a2-4fb1-d960-56f1a392efe2,Autohaus Schneeberger,Autohaus Schneeberger GmbH & Co. KG,Bahnhofsraße,3,93164,Laaber,49.067825,11.88435,2019-12-09T18:01:13.000+01:00,"\"{\"\"overrides\"\":[{\"\"startp\"\":\"\"2024-12-31 00:00\"\""
46d824e1-819e-483c-b772-f6af9b96cca3,0.8974358974358975,46d824e1-819e-483c-b772-f6af9b96cca3,Aytuk-Hakan Ertürk,NORDOEL,Hauptstr.,40,21755,Hechthausen,53.641523,9.236627,2014-03-18T16:45:31.000+01:00,"\"{\"\"openingTimes\"\":[{\"\"applicable_days\"\":32"
595a315d-06e2-43cb-a6ce-0c1d7d3cae43,0.8125,595a315d-06e2-43cb-a6ce-0c1d7d3cae43,OIL! Tankstelle Hildesheim,OIL!,Schützenwiese 27 A,,31137,Hildesheim,52.1522,9.93637,2014-03-18T16:45:31.000+01:00,"\"{\"\"openingTimes\"\":[{\"\"applicable_days\"\":192"
005056ba-7cb6-1ed2-bceb-bc577a5e6d4e,0.7857142857142857,005056ba-7cb6-1ed2-bceb-bc577a5e6d4e,ORLEN Tankstelle,ORLEN,Hamburger Straße,141,25337,Elmshorn,53.749915,9.681535,2014-03-18T16:45:31.000+01:00,{}
2599dfbd-54c1-473d-a0df-a1538ba120b6,0.5833333333333334,2599dfbd-54c1-473d-a0df-a1538ba120b6,Raiffeisen Lagerhaus GmbH Gaukönigshofen,ZG Raiffeisen Energie,Raiffeisenplatz,3,97253,Gaukönigshofen,49.63404,10.006548,2020-12-02T20:01:18.000+01:00,{}
2e5677c6-f550-4c98-a328-26e06a770fab,0.7692307692307693,2e5677c6-f550-4c98-a328-26e06a770fab,Volker Wilkens,NORDOEL,Jungfernstieg,13,25704,Meldorf,54.09002,9.06916,2014-03-18T16:45:31.000+01:00,"\"{\"\"openingTimes\"\":[{\"\"applicable_days\"\":32"
ec8055b8-cdb5-4414-8558-7444de5fd4ea,0.7674418604651163,ec8055b8-cdb5-4414-8558-7444de5fd4ea,Ramona Pelster,Westfalen,Schiffahrter Damm,29,48145,Münster,51.969,7.65573,2014-03-18T16:45:31.000+01:00,"\"{\"\"openingTimes\"\":[{\"\"applicable_days\"\":32"
74043533-9298-4e83-916f-390f3036efd0,0.6296296296296297,74043533-9298-4e83-916f-390f3036efd0,Shell Troisdorf Larstr. 2 A,Shell,Larstr.,2 A,53844,Troisdorf,50.807089,7.130142,2014-03-18T16:45:31.000+01:00,{}
a4810f7d-b02f-4a48-9c38-11925f6af108,1.0,a4810f7d-b02f-4a48-9c38-11925f6af108,Shell Ziesar A2 Buckautal Sued,Shell,A2 Buckautal Sued,,14793,Ziesar,52.249972,12.306864,2018-05-30T23:30:06.000+02:00,{}
ab32ef68-d8b4-4424-8466-4ab89198c3dc,0.7142857142857143,ab32ef68-d8b4-4424-8466-4ab89198c3dc,Aral Tankstelle,ARAL,An der Stadtautobahn,60,18119,Rostock,54.168423,12.079958,2014-03-18T16:45:31.000+01:00,"\"{\"\"openingTimes\"\":[{\"\"applicable_days\"\":127"
db9e7abe-b6ca-4881-8e9f-cd65e7c555d7,0.9333333333333333,db9e7abe-b6ca-4881-8e9f-cd65e7c555d7,Aral Tankstelle,ARAL,Amsterdamer Straße,194,50735,Köln,50.974747,6.970322,2014-03-18T16:45:31.000+01:00,{}
b98e30d0-1212-42fc-a04a-70e50bb2bf13,0.7,b98e30d0-1212-42fc-a04a-70e50bb2bf13,Aral Tankstelle,ARAL,Pyrmonter Straße,32,31789,Hameln,52.098495,9.350625,2014-03-18T16:45:31.000+01:00,"\"{\"\"openingTimes\"\":[{\"\"applicable_days\"\":64"
d7e2f7a3-3bfa-4f67-a702-a8c90a52dba7,0.7428571428571429,d7e2f7a3-3bfa-4f67-a702-a8c90a52dba7,Aral Tankstelle,ARAL,Volkmannstraße,19,06112,Halle,51.487915,11.984189,2014-03-18T16:45:31.000+01:00,{}
4497aba2-c7b7-4965-a651-4d9aadc83c2d,0.8620689655172413,4497aba2-c7b7-4965-a651-4d9aadc83c2d,Shell Frankfurt Am Main Huegelstr. 145a,Shell,Huegelstr.,145a,60431,Frankfurt Am Main,50.147153,8.66268,2014-03-18T16:45:31.000+01:00,"\"{\"\"openingTimes\"\":[{\"\"applicable_days\"\":224"
e1a15081-24bd-9107-e040-0b0a3dfe563c,0.4888888888888889,e1a15081-24bd-9107-e040-0b0a3dfe563c,"Anklam, Lübecker Str. 18",HEM,Lübecker Str.,20,17389,Anklam,53.844761,13.685467,2014-03-18T16:45:31.000+01:00,"\"{\"\"openingTimes\"\":[{\"\"applicable_days\"\":127"
e1a15081-257c-9107-e040-0b0a3dfe563c,0.48,e1a15081-257c-9107-e040-0b0a3dfe563c,"Wuppertal, Einern 144",HEM,Einern,144,42279,Wuppertal,51.302139,7.214836,2014-03-18T16:45:31.000+01:00,"\"{\"\"openingTimes\"\":[{\"\"applicable_days\"\":31"
ecb1ad06-9ba2-40a2-bf18-cd8f5dac20e3,0.8333333333333334,ecb1ad06-9ba2-40a2-bf18-cd8f5dac20e3,Raiffeisen Sauer-Siegerland eG,Raiffeisen,Kölner Str.,9,57482,Wenden Rothemühle,50.952824,7.8187733,2019-09-30T20:01:13.000+02:00,{}
ac50c5f1-7c1a-4ab6-aceb-c80ad2840b6a,0.8205128205128205,ac50c5f1-7c1a-4ab6-aceb-c80ad2840b6a,Raiffeisen Hatten eG,Raiffeisen Hatten eG,Theodor-Heuss-Str.,16,26209,Hatten / Sandkrug,53.0577,8.24023,2016-10-05T00:00:02.000+02:00,{}
f5851144-c907-4ffb-3b3a-96f5174bfe18,1.0,f5851144-c907-4ffb-3b3a-96f5174bfe18,Tankstelle Seehausen,BFT Seehausen Wanzleben,Wanzlebener Allee,12 B,39164,Wanzleben/Seehausen,52.096901,11.307616,2020-02-29T10:01:16.000+01:00,"\"{\"\"overrides\"\":[{\"\"startp\"\":\"\"2024-12-31 06:00\"\""
168cacbd-2404-482e-81d1-9d066eee1323,0.8235294117647058,168cacbd-2404-482e-81d1-9d066eee1323,Sb Langenfeld Opladenerstr. 132,SB,Opladenerstr.,132,40764,Langenfeld,51.084671,6.972238,2014-09-06T00:00:01.000+02:00,"\"{\"\"openingTimes\"\":[{\"\"applicable_days\"\":192"
e28a9829-5baa-43ec-878c-940d88188aa1,0.8857142857142857,e28a9829-5baa-43ec-878c-940d88188aa1,Esso Tankstelle,ESSO,HAMBURGER CHAUSSEE 1,"",23858,REINFELD,53.825665,10.497967,2014-03-18T16:45:31.000+01:00,"\"{\"\"openingTimes\"\":[{\"\"applicable_days\"\":31"
0feba92e-b564-4776-a2ea-e8a473b66156,0.6875,0feba92e-b564-4776-a2ea-e8a473b66156,Esso Tankstelle,ESSO,BOLTENSTERNSTR. 353,"",50735,KOELN,50.980432,6.968957,2014-03-18T16:45:31.000+01:00,{}
1542a76a-ceaf-4d55-8cef-bcd83af16f3b,0.7073170731707317,1542a76a-ceaf-4d55-8cef-bcd83af16f3b,Esso Tankstelle,ESSO,HAUPTSTR. 136,"",70563,STUTTGART,48.730809,9.098163,2014-03-18T16:45:31.000+01:00,"\"{\"\"openingTimes\"\":[{\"\"applicable_days\"\":127"
a0444420-f4af-4cc3-851c-0cf00163eaac,0.85,a0444420-f4af-4cc3-851c-0cf00163eaac,BELL Oil,BELL Oil,Essener Straße,29,57234,Wilnsdorf,50.82368,8.0785,2014-03-18T16:45:31.000+01:00,"\"{\"\"openingTimes\"\":[{\"\"applicable_days\"\":32"
005056ba-7cb6-1ed2-bceb-cd3fa4a5cd57,0.8421052631578947,005056ba-7cb6-1ed2-bceb-cd3fa4a5cd57,star Tankstelle,STAR,Hauptstraße,1,26427,Esens,53.673708,7.57825,2014-03-18T16:45:31.000+01:00,"\"{\"\"overrides\"\":[{\"\"startp\"\":\"\"2024-12-31 07:00\"\""
005056ba-7cb6-1ed2-bceb-577013c04d16,0.6578947368421053,005056ba-7cb6-1ed2-bceb-577013c04d16,star Tankstelle,STAR,Bonsfelder Straße,85,42555,Velbert,51.370968,7.137623,2014-03-18T16:45:31.000+01:00,"\"{\"\"overrides\"\":[{\"\"startp\"\":\"\"2024-12-31 06:00\"\""
005056ba-7cb6-1ed2-bceb-b09f70c64d45,0.9032258064516129,005056ba-7cb6-1ed2-bceb-b09f70c64d45,star Tankstelle,STAR,Hauptstraße,7,01809,Heidenau,50.972393,13.863715,2014-03-18T16:45:31.000+01:00,"\"{\"\"openingTimes\"\":[{\"\"applicable_days\"\":31"
005056a9-779e-1eed-b8d2-71999aa40ca8,0.9375,005056a9-779e-1eed-b8d2-71999aa40ca8,ORLEN Express Tankstelle,ORLEN Express,Lilienthalstr.,54,85080,Gaimersheim,48.786859,11.385174,2023-06-02T00:01:17.000+02:00,{}
51d4b667-a095-1aa0-e100-80009459e03a,0.6451612903225806,51d4b667-a095-1aa0-e100-80009459e03a,JET LEIPZIG DIESKAUSTR. 111,JET,DIESKAUSTR.,111,04249,LEIPZIG,51.31054,12.32654,2014-03-18T16:45:31.000+01:00,"\"{\"\"openingTimes\"\":[{\"\"applicable_days\"\":63"
51d4b66a-a095-1aa0-e100-80009459e03a,0.7352941176470589,51d4b66a-a095-1aa0-e100-80009459e03a,JET HAMBURG RUGENBARG 266-268,JET,RUGENBARG,266-268,22549,HAMBURG,53.58738,9.87474,2014-03-18T16:45:31.000+01:00,{}
ce241717-e5ad-1eeb-a5e3-62505d96c8d0,0.8214285714285714,ce241717-e5ad-1eeb-a5e3-62505d96c8d0,JET INGOLSTADT AM HOCHFELDWEG 2A,JET,AM HOCHFELDWEG,2A,85051,INGOLSTADT,48.70509,11.42165,2021-04-07T00:01:15.000+02:00,"\"{\"\"openingTimes\"\":[{\"\"applicable_days\"\":31"
3e7438b0-23ec-4190-b86c-9114d1fec47f,0.6666666666666666,3e7438b0-23ec-4190-b86c-9114d1fec47f,Ayse Geyik,NORDOEL,Meiendorfer Str.,168,22145,Hamburg,53.62969,10.18086,2014-03-18T16:45:31.000+01:00,"\"{\"\"openingTimes\"\":[{\"\"applicable_days\"\":31"
c14f1d72-cdc4-4028-942e-9aea8ee1a4e2,0.7692307692307693,c14f1d72-cdc4-4028-942e-9aea8ee1a4e2,Shell Schwalmstadt Wiederholdstr. 41,Shell,Wiederholdstr.,41,34613,Schwalmstadt,50.91245,9.249208,2014-03-18T16:45:31.000+01:00,{}
1504155b-d93f-42b1-a34c-c457bcdd2dce,0.782608695652174,1504155b-d93f-42b1-a34c-c457bcdd2dce,CLASSIC Sondershausen,CLASSIC,Erfurter Str.,14,99706,Sondershausen,51.3673,10.8488,2015-12-11T00:00:01.000+01:00,"\"{\"\"overrides\"\":[{\"\"startp\"\":\"\"2024-12-31 06:00\"\""
e591e905-07c8-42cb-8c75-4f3c18b6cdf1,1.0,e591e905-07c8-42cb-8c75-4f3c18b6cdf1,Elan Kirchhain,ELAN,Niederrheinische Str.,39,35274,Kirchhain,50.824342,8.92863,2014-03-18T16:45:31.000+01:00,"\"{\"\"openingTimes\"\":[{\"\"applicable_days\"\":31"
d519d2f6-4ec6-4802-7216-576d44ea2d20,0.813953488372093,d519d2f6-4ec6-4802-7216-576d44ea2d20,Tankcenter Herm Lauda,HERM,Am Wörth,3,97922,Lauda,49.571117,9.70594,2014-03-18T16:45:31.000+01:00,{}
d3317ef8-7c73-7b27-c91f-ae5991e2612e,1.0,d3317ef8-7c73-7b27-c91f-ae5991e2612e,Tankstelle Spenner,,Fürstenberger Straße,34,33142,Büren,51.543707,8.56583,2023-12-29T00:45:21.000+01:00,"\"{\"\"openingTimes\"\":[{\"\"applicable_days\"\":63"
7a46b5d7-8395-422e-a302-20608813b63e,0.896551724137931,7a46b5d7-8395-422e-a302-20608813b63e,Classic Tankautomat,CLASSIC,Zum Poitzer Bahnhof,3,29328,Faßberg,52.8949,10.1593,2014-03-18T16:45:31.000+01:00,{}
00913a77-3a6b-4ad6-a03b-0aeb7417b940,0.4444444444444444,00913a77-3a6b-4ad6-a03b-0aeb7417b940,GULF Rietschen,Gulf,Muskauer Str.,35a,02956,Rietschen,51.4045,14.7865,2019-10-22T16:01:13.000+02:00,"\"{\"\"openingTimes\"\":[{\"\"applicable_days\"\":31"
7061c4f8-9acf-439a-adb6-65d1385787f3,0.96875,7061c4f8-9acf-439a-adb6-65d1385787f3,Tankstelle Hirse,Tankstelle Hirse,Mühlheimer Str.,16,78579,Neuhausen,47.975044250488,8.9261522293091,2014-03-18T16:45:31.000+01:00,{}
d9b39ecd-0940-47b8-8be6-4be6764c66bd,0.9473684210526315,d9b39ecd-0940-47b8-8be6-4be6764c66bd,KEMPTEN - ADENAUERRING 24,Sunoil,Adenauerring,24,87439,Kempten,47.7362246,10.3106716,2014-03-18T16:45:31.000+01:00,{}
df31f3b3-6245-4e37-b435-cfb76d392c17,0.75,df31f3b3-6245-4e37-b435-cfb76d392c17,AVEX Heiligenstadt,AVEX,Flinsberger Str.,1,37308,Heiligenstadt,51.3703,10.1545,2014-03-18T16:45:31.000+01:00,{}
e17ed0cd-65fc-48fa-9f25-45d6a1b928f2,0.9142857142857143,e17ed0cd-65fc-48fa-9f25-45d6a1b928f2,Tankstelle Kirchlengern,Hempelmann,Hüllerstraße,20,32278,Kirchlengern,52.217399597168,8.6381597518921,2014-03-18T16:45:31.000+01:00,"\"{\"\"openingTimes\"\":[{\"\"applicable_days\"\":63"
0686143c-d892-4f9a-9d6c-9c00cccb9432,0.7272727272727273,0686143c-d892-4f9a-9d6c-9c00cccb9432,VR-Bank in Südniedersachsen eG,Raiffeisen,Neue Str.,5,37434,Gieboldehausen,51.60726,10.207071,2014-03-18T16:45:31.000+01:00,"\"{\"\"openingTimes\"\":[{\"\"applicable_days\"\":127"
13713f06-64a3-4246-b630-78b0a2ef3cb0,0.7073170731707317,13713f06-64a3-4246-b630-78b0a2ef3cb0,Esso Tankstelle,ESSO,ESCHBORNER STR. 34,"",61449,STEINBACH,50.164688,8.570847,2014-03-18T16:45:31.000+01:00,"\"{\"\"openingTimes\"\":[{\"\"applicable_days\"\":31"
5b89231c-e229-4b35-b52c-371d88d89c99,1.0,5b89231c-e229-4b35-b52c-371d88d89c99,Sb-Tankstelle & Autowäsche,SB-Tankstelle,Walchenseestr.,34,82494,Krün,47.50862,11.27942,2017-04-26T00:00:26.000+02:00,"\"{\"\"openingTimes\"\":[{\"\"applicable_days\"\":127"
2b927c6f-476f-46ed-a5a9-0f9783db081c,1.0,2b927c6f-476f-46ed-a5a9-0f9783db081c,Schmitt-Müller GmbH&Co.KG,bft,Forsthausstr.,14-16,68642,Bürstadt,49.647747,8.470242,2014-03-18T16:45:31.000+01:00,{}
48ea42d3-38f7-4247-842d-01686e380ed5,0.775,48ea42d3-38f7-4247-842d-01686e380ed5,Shell Burgebrach Bamberger Str. 8,Shell,Bamberger Str.,8,96138,Burgebrach,49.827047,10.745697,2014-03-18T16:45:31.000+01:00,{}
d8f3f164-50e4-4904-b29a-82755af99626,0.8709677419354839,d8f3f164-50e4-4904-b29a-82755af99626,Shell Gladbeck B 224/Nordseite,Shell,B 224/Nordseite,,45964,Gladbeck,51.573938,7.011765,2014-03-18T16:45:31.000+01:00,{}
963ea551-deef-473b-9cea-f45026616bac,0.9393939393939394,963ea551-deef-473b-9cea-f45026616bac,Shell Bremerhaven Langener Landstr. 314,Shell,Langener Landstr.,314,27578,Bremerhaven,53.594271,8.598351,2014-03-18T16:45:31.000+01:00,{}
cd59c7ed-9e60-4ffe-8cd8-f095e020f98c,0.9,cd59c7ed-9e60-4ffe-8cd8-f095e020f98c,Aral Tankstelle,ARAL,Bismarckstraße,280,45889,Gelsenkirchen,51.533142,7.110759,2014-03-18T16:45:31.000+01:00,{}
de5ab747-2d67-42bb-ac46-00c7aacafaa7,1.0,de5ab747-2d67-42bb-ac46-00c7aacafaa7,Aral Tankstelle,ARAL,Haller Straße,18,74248,Ellhofen,49.14881,9.321914,2014-03-18T16:45:31.000+01:00,"\"{\"\"openingTimes\"\":[{\"\"applicable_days\"\":64"
813ed58c-b58d-4d17-895b-2078cb302649,0.8285714285714286,813ed58c-b58d-4d17-895b-2078cb302649,Aral Tankstelle,ARAL,Prinzenstraße,29,10969,Berlin,52.501896,13.409839,2014-03-18T16:45:31.000+01:00,{}
4e5b707f-dea0-4942-9d9e-614d4f8bec02,0.9615384615384616,4e5b707f-dea0-4942-9d9e-614d4f8bec02,Aral Tankstelle,ARAL,Kreuzwiese,1,67806,Rockenhausen,49.642303,7.826909,2014-03-18T16:45:31.000+01:00,"\"{\"\"openingTimes\"\":[{\"\"applicable_days\"\":96"
84fd0cb2-b1b8-447a-b3f7-33f5113144c3,1.0,84fd0cb2-b1b8-447a-b3f7-33f5113144c3,ZG Raiffeisen Tankstelle Kraichtal-Münzesheim,ZG Raiffeisen Energie,Eppinger Str.,51,76703,Kraichtal-Münzesheim,49.12217,8.724312,2014-03-18T16:45:31.000+01:00,{}
bbbfc7ea-1032-4fbe-962c-7624f6edfc94,1.0,bbbfc7ea-1032-4fbe-962c-7624f6edfc94,Karl-Heinz Zimmer,ED,Schaumbergstraße,170,66822,Lebach-Thalexweiler,49.448753,6.967598,2014-03-18T16:45:31.000+01:00,"\"{\"\"overrides\"\":[{\"\"startp\"\":\"\"2024-12-31 07:00\"\""
ca954573-b35e-462f-bcef-1d14182288f4,0.9,ca954573-b35e-462f-bcef-1d14182288f4,Supermarkt Meerane,Supermarkt,Industrieweg,2,08393,Meerane,50.831722,12.448803,2014-03-18T16:45:31.000+01:00,"\"{\"\"openingTimes\"\":[{\"\"applicable_days\"\":63"
2166c87b-b1f4-41e5-858a-37d361ebc374,1.0,2166c87b-b1f4-41e5-858a-37d361ebc374,J. Hannöver,Freie Tankstelle Hannöver,Unnerweg,66,49688,Lastrup,52.8013,7.887047,2016-05-13T06:00:01.000+02:00,{}
e1a71869-0ddf-4f91-ac1b-1a341212712b,0.7763157894736842,e1a71869-0ddf-4f91-ac1b-1a341212712b,Olga Trippel,Westfalen,Osningstr.,15,33605,Bielefeld,52.00316,8.55902,2014-03-18T16:45:31.000+01:00,"\"{\"\"openingTimes\"\":[{\"\"applicable_days\"\":127"
d11cb1e9-3d9a-4c1b-88ba-2670774e94e2,0.9583333333333334,d11cb1e9-3d9a-4c1b-88ba-2670774e94e2,TotalEnergies Truckstop Moorfleet,TotalEnergies Truckstop,Andreas Meyer Str.,63,22113,Hamburg,53.512352,10.088851,2018-06-18T23:30:07.000+02:00,{}
4bf3f670-6bfd-4bbe-8868-90f0b9b862cc,0.8620689655172413,4bf3f670-6bfd-4bbe-8868-90f0b9b862cc,Markenfreie TS Springe,Markenfreie TS,Bernauer Str.,2A,31832,Springe,52.212443,9.547348,2014-03-18T16:45:31.000+01:00,{}
4cb10b20-bad4-4013-9b77-0470b52ece3d,0.7692307692307693,4cb10b20-bad4-4013-9b77-0470b52ece3d,TotalEnergies Aue,TotalEnergies,Loessnitzer Str.,87,08280,Aue,50.596535,12.707197,2014-12-05T00:00:01.000+01:00,{}
5b88f7ec-8d07-48db-9a3f-339fd78aca72,0.875,5b88f7ec-8d07-48db-9a3f-339fd78aca72,TotalEnergies Autohof Langenselbold West,TotalEnergies Autohof,Roentgenstr.,1,63526,Erlensee,50.182387,9.007049,2014-03-18T16:45:31.000+01:00,{}
ef67307e-1632-4e85-a563-0017276b875e,0.7941176470588235,ef67307e-1632-4e85-a563-0017276b875e,TotalEnergies ALLGUTH c/o Yücel Abacioglu,TOTAL,Gablinger Weg,83,86154,Augsburg,48.3987228,10.8686952,2014-03-18T16:45:31.000+01:00,{}
316bbaf1-30da-4efd-b203-f3073e8237da,0.4,316bbaf1-30da-4efd-b203-f3073e8237da,Freie,,Zum Rieth,3,99326,Stadtilm,50.750762,11.043416,2024-12-09T22:47:03.000+01:00,"\"{\"\"openingTimes\"\":[{\"\"applicable_days\"\":96"
cad0d6d1-b55f-4cbd-9511-4371f7944f6e,0.5714285714285714,cad0d6d1-b55f-4cbd-9511-4371f7944f6e,bft-willer Station 131,bft-willer,Gutenbergstr.,80-86,24118,Kiel,54.3333,10.1142,2014-03-18T16:45:31.000+01:00,"\"{\"\"openingTimes\"\":[{\"\"applicable_days\"\":63"
aa842438-c80d-46c1-828f-2cadb756d022,1.0,aa842438-c80d-46c1-828f-2cadb756d022,Tankstelle FFM Borsigallee,Roth- Energie,Borsigallee Str.,31,60388,Frankfurt a. Main,50.13907,8.74561,2014-05-16T00:00:01.000+02:00,{}
f5194351-6de9-402f-ba3e-2de5040fc353,0.7777777777777778,f5194351-6de9-402f-ba3e-2de5040fc353,OIL! Tankstelle Suhl,OIL!,Große Beerbergstraße 12,,98528,Suhl,50.6339,10.7046,2014-03-18T16:45:31.000+01:00,"\"{\"\"openingTimes\"\":[{\"\"applicable_days\"\":224"
f038aeb0-03ec-41d0-a686-baa1a981b7d2,0.7105263157894737,f038aeb0-03ec-41d0-a686-baa1a981b7d2,Raiffeisen Warengenossenschaft Ammerland-OstFriesland eG,Raiffeisen,Berlinerstr.,2,26452,Sande,53.496075,8.023185,2014-03-18T16:45:31.000+01:00,{}
320288c7-e143-472d-9c1e-afcaee44e0dc,0.8108108108108109,320288c7-e143-472d-9c1e-afcaee44e0dc,Agip Forst,Agip,Döberner Str.,20,03149,Forst,51.7163,14.615,2019-10-18T16:01:13.000+02:00,"\"{\"\"overrides\"\":[{\"\"startp\"\":\"\"2024-12-28 07:00\"\""
7d62fbf4-20e8-43ab-94bc-0836393cd248,1.0,7d62fbf4-20e8-43ab-94bc-0836393cd248,BBAG Rhedebrügge eG,Raiffeisen,Bocholter Straße,244,46325,Borken,51.83131,6.78469,2024-07-31T23:10:35.000+02:00,{}
453929ee-69d2-47b5-a771-45343c15cb06,1.0,453929ee-69d2-47b5-a771-45343c15cb06,Shell Ziesar A2 Buckautal Nord,Shell,A2 Buckautal Nord,,14793,Ziesar,52.252791,12.310146,2014-03-18T16:45:31.000+01:00,{}
ee109942-f087-45e2-a1c2-1f50c7dcc724,0.7209302325581395,ee109942-f087-45e2-a1c2-1f50c7dcc724,Shell Frechen Alfred-Nobel-Str. 46,Shell,Alfred-Nobel-Str.,46,50226,Frechen,50.912458,6.819284,2014-03-18T16:45:31.000+01:00,{}
8d31088e-6e27-4e87-b1a3-5dcf5903297f,0.8,8d31088e-6e27-4e87-b1a3-5dcf5903297f,Shell Rheinberg An der Neuweide 34,Shell,An der Neuweide,34,47495,Rheinberg,51.535501,6.60613,2014-03-18T16:45:31.000+01:00,{}
ee0a625e-b383-4ca0-9168-ce0c1e8333d2,1.0,ee0a625e-b383-4ca0-9168-ce0c1e8333d2,Aral Tankstelle,ARAL,Günzburger Straße,54,89264,Weißenhorn,48.31183,10.157852,2014-03-18T16:45:31.000+01:00,"\"{\"\"openingTimes\"\":[{\"\"applicable_days\"\":64"
970b6f65-3e48-491d-9d2b-946a017876ff,1.0,970b6f65-3e48-491d-9d2b-946a017876ff,"Aral Tankstelle, BAT Gräfenhausen Ost",ARAL,A,5,64331,Weiterstadt,49.94553,8.610921,2023-07-12T06:01:17.000+02:00,{}
0014c75b-2b35-4fad-b162-8b3fb9125cd2,0.8484848484848485,0014c75b-2b35-4fad-b162-8b3fb9125cd2,Aral Tankstelle,ARAL,Jerichower Straße,24,39114,Magdeburg,52.13194,11.665182,2014-03-18T16:45:31.000+01:00,{}
27049036-5018-4e13-9952-c28d70807d80,0.7272727272727273,27049036-5018-4e13-9952-c28d70807d80,Aral Tankstelle,ARAL,Hohenlimburger Straße,191,58119,Hagen,51.35596,7.556166,2014-03-18T16:45:31.000+01:00,{}
9885da11-cccb-476d-aded-5d6428cf7392,0.896551724137931,9885da11-cccb-476d-aded-5d6428cf7392,Aral Tankstelle,ARAL,Guetersloher Straße,240,33649,Bielefeld,51.980167,8.477516,2014-03-18T16:45:31.000+01:00,{}
b0b6a79a-4c73-42ea-bb03-d7de77220bff,0.6470588235294118,b0b6a79a-4c73-42ea-bb03-d7de77220bff,Aral Tankstelle,ARAL,Nordwerk,10,78176,Blumberg,47.84621,8.554895,2014-03-18T16:45:31.000+01:00,{}
de784540-d7e3-4e3d-97f8-1735342af8d6,0.8181818181818182,de784540-d7e3-4e3d-97f8-1735342af8d6,Aral Tankstelle,ARAL,Weisendorfer Straße,16,91056,Erlangen,49.625683,10.940643,2014-03-18T16:45:31.000+01:00,"\"{\"\"openingTimes\"\":[{\"\"applicable_days\"\":127"
dceb1224-f840-45da-8f8d-d9eda6b64182,0.6744186046511628,dceb1224-f840-45da-8f8d-d9eda6b64182,Aral Tankstelle,ARAL,Am Eichelberg,2,91567,Herrieden,49.25875,10.501871,2014-03-18T16:45:31.000+01:00,{}
f34a1b53-9b4e-4720-8771-c251c5c2a59f,0.8461538461538461,f34a1b53-9b4e-4720-8771-c251c5c2a59f,TotalEnergies Seelze,TotalEnergies,Harenberger Meile,39,30926,Seelze,52.37781,9.618669,2014-03-18T16:45:31.000+01:00,"\"{\"\"openingTimes\"\":[{\"\"applicable_days\"\":31"
65ea960d-1cc4-45f3-8daa-2e77e2dd7d0a,0.7727272727272727,65ea960d-1cc4-45f3-8daa-2e77e2dd7d0a,"Weinheim, Bergstr. 197",HEM,Bergstr.,197,69469,Weinheim,49.566014,8.663726,2017-10-17T19:01:15.000+02:00,"\"{\"\"openingTimes\"\":[{\"\"applicable_days\"\":31"
576c4533-8284-4657-82c9-3fb2394ca491,0.7916666666666666,576c4533-8284-4657-82c9-3fb2394ca491,BayWa Tankstelle Gochsheim,BayWa,Am Triebweg,4,97469,Gochsheim,50.02207,10.27169,2014-03-18T16:45:31.000+01:00,{}
cd8ba6a6-a0f3-1ed6-9ae0-dd45d9b4c1e7,1.0,cd8ba6a6-a0f3-1ed6-9ae0-dd45d9b4c1e7,JET OEPFINGEN ULMER STR. 31,JET,ULMER STR.,31,89614,OEPFINGEN,48.29348,9.80282,2016-08-26T00:00:01.000+02:00,"\"{\"\"openingTimes\"\":[{\"\"applicable_days\"\":31"
61407a4f-ddbe-4932-f03b-4ad832a20af1,0.9166666666666666,61407a4f-ddbe-4932-f03b-4ad832a20af1,Knies+Lagotka Kartentankstelle,Knies+Lagotka,Unterstr.,5,35315,Homberg/Ohm,50.754491,8.970613,2015-02-14T00:00:01.000+01:00,{}
a75de68d-c9a6-435a-b705-9184c1eb56bb,0.8518518518518519,a75de68d-c9a6-435a-b705-9184c1eb56bb,"Frankenthal, Wormser Straße 128",HEM,Wormser Straße,128,67227,Frankenthal,49.548357,8.353794,2022-02-03T12:01:16.000+01:00,"\"{\"\"openingTimes\"\":[{\"\"applicable_days\"\":31"
aab62468-53b6-4f24-995e-c76f98978d5a,0.9285714285714286,aab62468-53b6-4f24-995e-c76f98978d5a,Esso Tankstelle,ESSO,FREISINGER STR. 48,"",85416,LANGENBACH,48.434115,11.842232,2014-03-18T16:45:31.000+01:00,"\"{\"\"openingTimes\"\":[{\"\"applicable_days\"\":31"
72f04cea-d26b-4612-9b74-da7e27a2e6d8,0.9736842105263158,72f04cea-d26b-4612-9b74-da7e27a2e6d8,Esso Tankstelle,ESSO,HAUPTSTR. 7,"",26215,WIEFELSTEDE,53.258818,8.115688,2014-03-18T16:45:31.000+01:00,"\"{\"\"openingTimes\"\":[{\"\"applicable_days\"\":63"
0e4d959e-743d-41fd-8323-b435a0b458ba,0.7906976744186046,0e4d959e-743d-41fd-8323-b435a0b458ba,Esso Tankstelle,ESSO,AN DER NORF,"",41469,NEUSS,51.16631,6.733911,2014-03-18T16:45:31.000+01:00,"\"{\"\"openingTimes\"\":[{\"\"applicable_days\"\":63"
75b3a44c-a86f-45dd-8f23-94b3c225c795,0.8947368421052632,75b3a44c-a86f-45dd-8f23-94b3c225c795,Esso Tankstelle,ESSO,DARMSTAEDTER STR. 129,"",68647,BIBLIS,49.69313,8.46362,2017-03-31T00:00:26.000+02:00,"\"{\"\"openingTimes\"\":[{\"\"applicable_days\"\":31"
41d54d55-759b-4c09-81d0-912c31861e78,0.8275862068965517,41d54d55-759b-4c09-81d0-912c31861e78,TotalEnergies Gelsenkirchen,TotalEnergies,Horster Str.,69,45897,Gelsenkirchen,51.57352,7.04802,2014-03-18T16:45:31.000+01:00,"\"{\"\"openingTimes\"\":[{\"\"applicable_days\"\":31"
51d4b4aa-a095-1aa0-e100-80009459e03a,0.7916666666666666,51d4b4aa-a095-1aa0-e100-80009459e03a,JET PORTA WESTFALICA PORTASTR. 94,JET,PORTASTR.,94,32457,PORTA WESTFALICA,52.25982,8.90705,2014-03-18T16:45:31.000+01:00,"\"{\"\"openingTimes\"\":[{\"\"applicable_days\"\":31"
472d4ab9-f28f-464a-b8ef-d32d24b6dfd0,0.875,472d4ab9-f28f-464a-b8ef-d32d24b6dfd0,Fettweisstraße,BFT,Fettweisstraße,8,76189,Karlsruhe,49.008127,8.326892,2017-04-21T00:00:26.000+02:00,{}
290733ba-f451-4664-984a-8d31a1cafccc,0.9714285714285714,290733ba-f451-4664-984a-8d31a1cafccc,Markenfreie TS Heinsberg,Markenfreie TS,Borsigstr.,42,52525,Heinsberg,51.06582,6.113094,2014-03-18T16:45:31.000+01:00,"\"{\"\"openingTimes\"\":[{\"\"applicable_days\"\":31"
605b103a-ebc9-4da9-a040-39341773cb68,0.967741935483871,605b103a-ebc9-4da9-a040-39341773cb68,TotalEnergies Dueren,TotalEnergies,Schoellerstr.,155,52351,Dueren,50.813242,6.488431,2014-03-18T16:45:31.000+01:00,"\"{\"\"openingTimes\"\":[{\"\"applicable_days\"\":63"
f54282f6-19c5-48ff-8ef1-02a372a1baef,0.9473684210526315,f54282f6-19c5-48ff-8ef1-02a372a1baef,TotalEnergies Limburg-Linter,TotalEnergies,Mainzer Str.,4,65550,Limburg-Linter,50.370873,8.08469,2014-03-18T16:45:31.000+01:00,"\"{\"\"openingTimes\"\":[{\"\"applicable_days\"\":31"
02e1db92-1b38-456c-8caa-1c4fe541df92,0.6041666666666666,02e1db92-1b38-456c-8caa-1c4fe541df92,Badziong Pulheim,TankCenter Badziong,Boschstr.,4,50259,Pulheim,50.9919,6.819,2014-03-18T16:45:31.000+01:00,"\"{\"\"openingTimes\"\":[{\"\"applicable_days\"\":64"
47b6c7c4-65fe-4ad5-8aab-3969e53a084c,0.5,47b6c7c4-65fe-4ad5-8aab-3969e53a084c,ENI,AGIP ENI,Boschetsrieder Str.,162,81379,München,48.099,11.50711,2014-03-20T00:00:01.000+01:00,"\"{\"\"openingTimes\"\":[{\"\"applicable_days\"\":31"
dd850bf9-35e6-46e5-8bc1-e7882e54cff1,0.7941176470588235,dd850bf9-35e6-46e5-8bc1-e7882e54cff1,AVIA Tankstelle,AVIA,Bahnhofstraße,10,73240,Wendlingen,48.66993,9.37355,2022-07-27T00:01:18.000+02:00,{}
fceefafb-bbd7-413d-016b-31073667feae,0.5384615384615384,fceefafb-bbd7-413d-016b-31073667feae,Schmetterling Reisen,Zulauf Tanken,Hersfelder Str.,42,34626,Neukirchen,50.863052,9.351511,2019-02-07T23:30:06.000+01:00,{}
50fe6487-d4c0-4aa1-8801-75f73fe47d1b,0.7142857142857143,50fe6487-d4c0-4aa1-8801-75f73fe47d1b,Halbemond,Lanfer,Nadörster Str.,34,26524,Halbemond,53.5691,7.28811,2024-06-21T23:05:08.000+02:00,{}
5aa9c84d-9680-4789-85ca-2990b416688e,0.9230769230769231,5aa9c84d-9680-4789-85ca-2990b416688e,Shell Obersulm Maybachstr. 5,Shell,Maybachstr.,5,74182,Obersulm,49.135951,9.377176,2014-03-18T16:45:31.000+01:00,{}
48315a30-6e20-420b-8551-93075383f1e3,0.85,48315a30-6e20-420b-8551-93075383f1e3,Shell Duisburg Angermunder Str 136,Shell,Angermunder Str,136,47269,Duisburg,51.355171,6.780638,2014-03-18T16:45:31.000+01:00,"\"{\"\"openingTimes\"\":[{\"\"applicable_days\"\":224"
ceccdeb8-bcbd-4e8d-9398-f0cf7eb936c3,0.7575757575757576,ceccdeb8-bcbd-4e8d-9398-f0cf7eb936c3,Aral Tankstelle,ARAL,Kohlenstraße,60,34121,Kassel,51.30921,9.462022,2014-03-18T16:45:31.000+01:00,"\"{\"\"openingTimes\"\":[{\"\"applicable_days\"\":64"
d8761b66-e15c-43ef-a411-d6eac4fc595e,0.9333333333333333,d8761b66-e15c-43ef-a411-d6eac4fc595e,Aral Tankstelle,ARAL,Bahnhofstraße,62,26954,Nordenham,53.486813,8.475246,2014-03-18T16:45:31.000+01:00,{}
7fe3c975-298e-4cbd-9903-b9a2f35af8f0,1.0,7fe3c975-298e-4cbd-9903-b9a2f35af8f0,Aral Tankstelle,ARAL,Österreicher Straße,64,01279,Dresden,51.021,13.840501,2014-03-18T16:45:31.000+01:00,"\"{\"\"openingTimes\"\":[{\"\"applicable_days\"\":96"
cca8a3e4-e1e9-4bd1-8f29-6062750c1a04,0.8888888888888888,cca8a3e4-e1e9-4bd1-8f29-6062750c1a04,Aral Tankstelle,ARAL,Bernauer Straße,20,94356,Kirchroth,48.947365,12.545309,2014-03-18T16:45:31.000+01:00,"\"{\"\"openingTimes\"\":[{\"\"applicable_days\"\":96"
22f89edd-02d9-41a0-af67-7a05f8a987dd,0.9130434782608695,22f89edd-02d9-41a0-af67-7a05f8a987dd,Aral Tankstelle,ARAL,Kaufbeurer Straße,5,86830,Schwabmünchen,48.17588,10.757688,2014-03-18T16:45:31.000+01:00,{}
0251709c-931c-4b3e-a549-a91e8b6f57d6,0.9090909090909091,0251709c-931c-4b3e-a549-a91e8b6f57d6,TotalEnergies Frankfurt,TotalEnergies,Kurhessenstr.,111,60431,Frankfurt,50.148045,8.656484,2014-03-18T16:45:31.000+01:00,"\"{\"\"openingTimes\"\":[{\"\"applicable_days\"\":31"
bdb8a918-fd3d-4683-9c80-bf8856290130,0.75,bdb8a918-fd3d-4683-9c80-bf8856290130,Rudolf Hayo Inh. Thomas Fellinger,ED,Ludweiler Straße,60,66352,Großrosseln,49.208523,6.835532,2014-03-18T16:45:31.000+01:00,"\"{\"\"overrides\"\":[{\"\"startp\"\":\"\"2024-12-31 08:00\"\""
dd6b64ad-8eb6-4774-ba27-e76ff68fe0b9,0.7714285714285715,dd6b64ad-8eb6-4774-ba27-e76ff68fe0b9,Tankstelle Nahetal e.K.,bft,Nahbollenbacher Straße,134,55743,Idar-Oberstein,49.710135,7.361921,2014-03-18T16:45:31.000+01:00,{}
8c567a74-94e7-49d6-98c0-fe471caa18e1,0.7857142857142857,8c567a74-94e7-49d6-98c0-fe471caa18e1,Esso Tankstelle,ESSO,WIESBADENER STR. SUED,"",60486,FRANKFURT,50.114507,8.617154,2014-03-18T16:45:31.000+01:00,{}
41e791c8-1e40-5a86-a475-b815008b9629,1.0,41e791c8-1e40-5a86-a475-b815008b9629,Lindau,Hoyer Tank-Treff Lindau,Goethestr.,1,39264,Lindau,52.03589248657,12.10210323334,2018-08-30T23:30:10.000+02:00,{}
76a49899-b0f5-4738-8126-4aa71e5cb2f0,0.8846153846153846,76a49899-b0f5-4738-8126-4aa71e5cb2f0,Kurt Schneider,Esso,Kreuzbergstr.,22,97705,Burkardroth,50.2847,9.9847,2014-03-18T16:45:31.000+01:00,"\"{\"\"openingTimes\"\":[{\"\"applicable_days\"\":31"
e2b1503f-6be0-4f7b-979f-b105f3ab28c9,0.8717948717948718,e2b1503f-6be0-4f7b-979f-b105f3ab28c9,Esso Station,ESSO,Freisinger Landstr. 9,"",80939,München,48.191004,11.618187,2014-03-18T16:45:31.000+01:00,{}
7bb93c4e-f978-4cc0-8654-dc2378f9437b,1.0,7bb93c4e-f978-4cc0-8654-dc2378f9437b,Fleming + Wendeln GmbH & Co. KG,Fleming + Wendeln GmbH & Co. KG,Aufm Halskamp,12,49681,Garrel,52.94671,8.0221,2017-11-13T23:30:06.000+01:00,{}
6f061355-85fe-4bc6-bd19-1806ea980772,0.9,6f061355-85fe-4bc6-bd19-1806ea980772,MTB Tankstelle,MTB,Horkheimer Straße,44,74223,Flein,49.1035572,9.2035582,2014-03-18T16:45:31.000+01:00,"\"{\"\"openingTimes\"\":[{\"\"applicable_days\"\":31"
a163c150-8c24-4f6b-b64d-b54112b8778c,0.9230769230769231,a163c150-8c24-4f6b-b64d-b54112b8778c,TotalEnergies Grossalmerode,TotalEnergies,Kasseler Str.,49-51,37247,Grossalmerode,51.258345,9.778154,2014-03-18T16:45:31.000+01:00,"\"{\"\"openingTimes\"\":[{\"\"applicable_days\"\":31"
9a29ac22-73bc-409a-89f7-0e73a9fe0327,0.9333333333333333,9a29ac22-73bc-409a-89f7-0e73a9fe0327,SB Wittstock Uetersener Str. 1,SB,Uetersener Str.,1,16909,Wittstock,53.1579,12.4544,2014-11-25T00:00:01.000+01:00,"\"{\"\"openingTimes\"\":[{\"\"applicable_days\"\":255"
900e9e9e-4082-4ab3-9196-7e2f8031026b,0.7,900e9e9e-4082-4ab3-9196-7e2f8031026b,Sauerland Tank,BFT,Hochsauerlandstr.,41,34508,Willingen-Usseln,51.2817198,8.6586847,2014-03-18T16:45:31.000+01:00,{}
1785eb65-d832-4000-ab4e-cf9f58342efd,0.7857142857142857,1785eb65-d832-4000-ab4e-cf9f58342efd,Hans-Dieter Schulz,Westfalen,Eckendorfer Str.,32,33609,Bielefeld,52.03347,8.55823,2014-03-18T16:45:31.000+01:00,{}
a1a785c7-3b02-44ca-b8ec-a42051736224,0.6875,a1a785c7-3b02-44ca-b8ec-a42051736224,TotalEnergies Bruchkoebel,TotalEnergies,Roemerstr.,16,63486,Bruchkoebel,50.179423,8.909233,2014-03-18T16:45:31.000+01:00,{}
e6eee85c-e1fc-4b66-8c36-c6d9460be444,0.9166666666666666,e6eee85c-e1fc-4b66-8c36-c6d9460be444,Eco Stetten Am Kalten Markt,ECO,Frohnstetter Str.,9,72510,Stetten Am Kalten Markt,48.125856,9.078381,2018-05-07T23:30:06.000+02:00,{}
01113d91-8f68-451f-a5f4-42225c15eb82,0.8275862068965517,01113d91-8f68-451f-a5f4-42225c15eb82,TotalEnergies Truckstop Saarbruecken,TotalEnergies,Metzer Str.,121,66117,Saarbruecken,49.209499,6.963703,2014-03-18T16:45:31.000+01:00,{}
b6a3937b-bc37-43d4-b206-c31d6bb74300,0.6341463414634146,b6a3937b-bc37-43d4-b206-c31d6bb74300,Minera Creditank Mannheim,MINERA  Automatenstation,Rotterdamer Str.,2-4,68219,Mannheim,49.4222,8.5149,2014-03-18T16:45:31.000+01:00,{}
0167e3db-9958-466a-8c7c-8e2b1b69f698,0.9666666666666667,0167e3db-9958-466a-8c7c-8e2b1b69f698,Michael Marx,Westfalen,Sutthauser Str.,166,49080,Osnabrück,52.25628,8.04194,2014-03-18T16:45:31.000+01:00,"\"{\"\"openingTimes\"\":[{\"\"applicable_days\"\":64"
b69c4419-320b-44ee-9bd9-0e92d32c87d0,0.8055555555555556,b69c4419-320b-44ee-9bd9-0e92d32c87d0,Tankstelle am Main Regnitzcenter,OKTAN,Industriestr.,9,96120,Bischberg-Trosdorf,49.91863,10.807082,2014-03-18T16:45:31.000+01:00,{}
b4949ec5-2b7d-4436-9186-1bec15398dca,1.0,b4949ec5-2b7d-4436-9186-1bec15398dca,team Tankautomat Rostock-Bentwisch,team,Hansestraße,22,18182,Bentwisch,54.116109,12.184257,2014-03-18T16:45:31.000+01:00,{}
74466e2d-dc6c-49a0-a28c-e6b5e9711b97,0.7169811320754716,74466e2d-dc6c-49a0-a28c-e6b5e9711b97,Shell Ahrensburg Hamburger Str. 165,Shell,Hamburger Str.,165,22926,Ahrensburg,53.663142,10.219967,2014-03-18T16:45:31.000+01:00,"\"{\"\"openingTimes\"\":[{\"\"applicable_days\"\":192"
7baed861-23bb-4935-949a-d0e7d65f35ee,0.7317073170731707,7baed861-23bb-4935-949a-d0e7d65f35ee,Shell Am Einkaufszentrum 1A / Ruhr Park Bochum,Shell,Am Einkaufszentrum /Ruhr Park,1A,44791,Bochum,51.493971,7.286264,2020-10-20T02:01:17.000+02:00,"\"{\"\"overrides\"\":[{\"\"startp\"\":\"\"2025-01-01 10:00\"\""
8f4f3fd0-9120-44da-8d18-2408535aea1e,0.9615384615384616,8f4f3fd0-9120-44da-8d18-2408535aea1e,Shell Metzingen Ulmer Str. 129,Shell,Ulmer Str.,129,72555,Metzingen,48.533641,9.295821,2014-03-18T16:45:31.000+01:00,"\"{\"\"openingTimes\"\":[{\"\"applicable_days\"\":224"
c06208ef-8ce2-4d05-9dab-c93c0234d285,1.0,c06208ef-8ce2-4d05-9dab-c93c0234d285,"Aral Tankstelle, BAT RENCHTAL WEST",ARAL,A,5,77767,Appenweier,48.56379,7.956917,2014-03-18T16:45:31.000+01:00,{}
113a18a8-1c2e-4a05-9089-65af466d62a1,0.6097560975609756,113a18a8-1c2e-4a05-9089-65af466d62a1,Aral Tankstelle,ARAL,Lippstädter Straße,23,59329,Wadersloh,51.70884,8.260127,2014-03-18T16:45:31.000+01:00,"\"{\"\"openingTimes\"\":[{\"\"applicable_days\"\":64"
912532ac-b029-420d-9314-3722e47bfb40,0.7352941176470589,912532ac-b029-420d-9314-3722e47bfb40,Aral Tankstelle,ARAL,Remsstraße,10,73525,Schwäbisch Gmünd,48.802795,9.797567,2014-03-18T16:45:31.000+01:00,{}
7f3ceea1-1ee8-49d8-996d-632106b036d7,0.875,7f3ceea1-1ee8-49d8-996d-632106b036d7,Aral Tankstelle,ARAL,Zuzenhaeuser Straße,2,74909,Meckesheim,49.319862,8.814378,2014-03-18T16:45:31.000+01:00,"\"{\"\"openingTimes\"\":[{\"\"applicable_days\"\":64"
2571f436-a04e-494f-8c5e-7cf9103be29c,1.0,2571f436-a04e-494f-8c5e-7cf9103be29c,"Aral Tankstelle, BAT UTTRICHSHAUSEN OST",ARAL,A,7,36148,Kalbach,50.410316,9.732433,2023-09-29T00:40:04.000+02:00,{}
9a886088-b210-4b92-b1b9-8b10d60061af,0.8,9a886088-b210-4b92-b1b9-8b10d60061af,Aral Tankstelle,ARAL,Im Hammertal,1,58456,Witten,51.405453,7.25213,2014-03-18T16:45:31.000+01:00,{}
4d0e5a99-89c9-45c1-afec-be95128044e4,0.8529411764705882,4d0e5a99-89c9-45c1-afec-be95128044e4,Aral Tankstelle,ARAL,Albaxer Straße,63,37671,Höxter,51.78602,9.387016,2014-03-18T16:45:31.000+01:00,{}
6384cdc0-ae0c-4463-bf8f-9707083e80f5,0.75,6384cdc0-ae0c-4463-bf8f-9707083e80f5,Aral Tankstelle,ARAL,Bürener Straße,155,59590,Geseke,51.59776,8.51572,2014-03-18T16:45:31.000+01:00,{}
35d44cd4-cb3e-4ae7-b045-9fdfd06817eb,0.875,35d44cd4-cb3e-4ae7-b045-9fdfd06817eb,Aral Tankstelle,ARAL,Tirschenreuther Straße,20,92681,Erbendorf,49.83555,12.054758,2014-03-18T16:45:31.000+01:00,"\"{\"\"openingTimes\"\":[{\"\"applicable_days\"\":64"
4f07eef6-0638-4ae2-b7b4-6a12f8ce1044,0.7884615384615384,4f07eef6-0638-4ae2-b7b4-6a12f8ce1044,Thorsten Sonntag,Westfalen,In der Geist,110,59302,Oelde,51.81155,8.13384,2014-03-18T16:45:31.000+01:00,{}
ef959d64-a45e-4a01-9011-f2b1d2b0d7c3,0.9230769230769231,ef959d64-a45e-4a01-9011-f2b1d2b0d7c3,TotalEnergies Meiningen,TotalEnergies,Steinweg,26,98617,Meiningen,50.559459,10.413132,2014-03-18T16:45:31.000+01:00,"\"{\"\"openingTimes\"\":[{\"\"applicable_days\"\":31"
75c0f0b7-252c-4146-ad76-f935ee230f08,0.6923076923076923,75c0f0b7-252c-4146-ad76-f935ee230f08,Bft Hamburg Winsener Straße 180,bft,Winsener Straße,180,21077,Hamburg,53.4287,9.98205,2014-03-18T16:45:31.000+01:00,"\"{\"\"openingTimes\"\":[{\"\"applicable_days\"\":192"
b0fabf4f-4ab8-4d14-907d-92e7be1de1f7,1.0,b0fabf4f-4ab8-4d14-907d-92e7be1de1f7,TotalEnergies Lebach,TotalEnergies,Heeresstr.,27,66822,Lebach,49.412624,6.894133,2014-03-18T16:45:31.000+01:00,"\"{\"\"openingTimes\"\":[{\"\"applicable_days\"\":63"
7287ab73-bf24-467f-87c5-f65aadf91b9a,0.7666666666666667,7287ab73-bf24-467f-87c5-f65aadf91b9a,TotalEnergies Recklinghausen,TotalEnergies,Schmalkalder Str.,13,45665,Recklinghausen,51.596634,7.244881,2014-03-18T16:45:31.000+01:00,"\"{\"\"openingTimes\"\":[{\"\"applicable_days\"\":31"
fbd56ed3-c51e-4c05-b5c1-c4211fdfbfde,0.9117647058823529,fbd56ed3-c51e-4c05-b5c1-c4211fdfbfde,blitz-tank Automatentankstelle am Kaufland,blitz-tank,Querfurter Str.,22,06217,Merseburg,51.37222,11.974943,2023-08-15T10:01:18.000+02:00,{}
ce75074c-0fb8-4aa0-ae13-fde384a63c59,0.8571428571428571,ce75074c-0fb8-4aa0-ae13-fde384a63c59,TotalEnergies Luebeck,TotalEnergies,Solmitzstr.,23A,23569,Luebeck,53.915282,10.805329,2014-03-18T16:45:31.000+01:00,"\"{\"\"openingTimes\"\":[{\"\"applicable_days\"\":31"
7e485027-07a8-4145-bcfb-ebdb32b4421c,0.627906976744186,7e485027-07a8-4145-bcfb-ebdb32b4421c,TH-Schwabenheim,bft-Tankstelle,Selztalstraße,3,55270,Schwabenheim,49.92882,8.0941,2016-12-18T00:00:01.000+01:00,{}
792992bc-59d7-4b3e-9cbb-db69af60717f,1.0,792992bc-59d7-4b3e-9cbb-db69af60717f,Greenline Dahlwitz-Hoppegarten,Greenline,Gewerbestr.,,15366,Dahlwitz-Hoppegarten,52.5103,13.6375,2014-12-09T00:00:01.000+01:00,{}
20555905-2b15-4f51-931c-98279f28077b,0.7105263157894737,20555905-2b15-4f51-931c-98279f28077b,AVIA Tankstelle,AVIA,Regener Straße,2,94253,Bischofsmais,48.91328,13.09018,2014-03-18T16:45:31.000+01:00,{}
6d38e242-65c7-4f07-9ed9-73e58796ce50,1.0,6d38e242-65c7-4f07-9ed9-73e58796ce50,TotalEnergies Mittenaar,TotalEnergies,An der B255,,35756,Mittenaar,50.698278,8.40891,2014-03-18T16:45:31.000+01:00,{}
f3037631-6dfa-4c54-908f-df9f87802dbd,0.75,f3037631-6dfa-4c54-908f-df9f87802dbd,Autohaus Knöpfle,Autohaus Knöpfle,Tevesstr.,64,78176,Blumberg,47.838665008545,8.5367650985718,2014-03-18T16:45:31.000+01:00,{}
087bc6cf-fd2d-417a-98ad-725c51a6e6af,0.75,087bc6cf-fd2d-417a-98ad-725c51a6e6af,Kuster Energy,Kuster Energy,Bahnhofstraße,159,46562,Voerde,51.60319,6.70303,2018-02-06T23:30:06.000+01:00,{}
2e82553b-9150-4190-bb5b-358bfeb6f767,0.803921568627451,2e82553b-9150-4190-bb5b-358bfeb6f767,Esso Tankstelle,ESSO,BONFELDER STR. 24,"",74906,BAD RAPPENAU,49.210441,9.060657,2014-03-18T16:45:31.000+01:00,"\"{\"\"openingTimes\"\":[{\"\"applicable_days\"\":31"
2f9554ee-211f-4efe-b53a-3007f697a685,0.75,2f9554ee-211f-4efe-b53a-3007f697a685,Esso Tankstelle,ESSO,WERFTALLEE 20,"",18109,ROSTOCK,54.157261,12.078646,2014-03-18T16:45:31.000+01:00,"\"{\"\"openingTimes\"\":[{\"\"applicable_days\"\":31"
e5a0b409-e420-49b9-87aa-ebb8bfc311dc,0.8275862068965517,e5a0b409-e420-49b9-87aa-ebb8bfc311dc,Esso Tankstelle,ESSO,PLOCHINGER STR. 21,"",73257,KOENGEN,48.682236,9.369722,2014-03-18T16:45:31.000+01:00,"\"{\"\"openingTimes\"\":[{\"\"applicable_days\"\":63"
e552b0e1-cda8-4c18-ae4a-3af8da64ab27,0.7959183673469388,e552b0e1-cda8-4c18-ae4a-3af8da64ab27,Esso Tankstelle,ESSO,DR.-REIMER-STR. 2,"",34323,MALSFELD,51.087083,9.486364,2014-03-18T16:45:31.000+01:00,{}
5e0f363c-fe9a-4740-8233-5c992496897a,0.95,5e0f363c-fe9a-4740-8233-5c992496897a,Aral Tankstelle,ARAL,Forchheimer Str.,15,79359,Riegel am Kaiserstuhl,48.156773,7.744626,2014-03-18T16:45:31.000+01:00,"\"{\"\"openingTimes\"\":[{\"\"applicable_days\"\":64"
0b47fac0-56c6-428e-b40f-ca56d29aceaa,0.9642857142857143,0b47fac0-56c6-428e-b40f-ca56d29aceaa,AS Mineralöle GmbH,AS Mineralöle,Fabrikstraße,1,06571,Roßleben,51.30228,11.462868,2017-02-07T00:00:26.000+01:00,{}
51d4b5c8-a095-1aa0-e100-80009459e03a,0.9259259259259259,51d4b5c8-a095-1aa0-e100-80009459e03a,Supermarkt-Tankstelle SALZGITTER SCHAEFERWIESE 15,Supermarkt-Tankstelle,SCHAEFERWIESE,15,38239,SALZGITTER,52.19529,10.45818,2014-03-18T16:45:31.000+01:00,"\"{\"\"openingTimes\"\":[{\"\"applicable_days\"\":63"
005056ba-7cb6-1ed2-bceb-7b35c6b18d27,0.6585365853658537,005056ba-7cb6-1ed2-bceb-7b35c6b18d27,star Tankstelle,STAR,Sachsenfelder Straße,1a,08340,Schwarzenberg,50.556865,12.777673,2014-03-18T16:45:31.000+01:00,"\"{\"\"openingTimes\"\":[{\"\"applicable_days\"\":127"
005056ba-7cb6-1ed2-bceb-cac65b7d8d54,0.8846153846153846,005056ba-7cb6-1ed2-bceb-cac65b7d8d54,star Tankstelle,STAR,Landstraße,5,37133,Friedland,51.43809,9.929888,2014-03-18T16:45:31.000+01:00,"\"{\"\"overrides\"\":[{\"\"startp\"\":\"\"2024-12-31 06:00\"\""
005056ba-7cb6-1ed2-bceb-9abb7c7c0d3b,0.6944444444444444,005056ba-7cb6-1ed2-bceb-9abb7c7c0d3b,star Tankstelle,STAR,Neustadtring,30,38114,Braunschweig,52.273696,10.511804,2014-03-18T16:45:31.000+01:00,{}
51d4b4ee-a095-1aa0-e100-80009459e03a,0.7777777777777778,51d4b4ee-a095-1aa0-e100-80009459e03a,JET HOECHST ERBACHER STR. 57,JET,ERBACHER STR.,57,64739,HOECHST,49.7954,8.99886,2014-03-18T16:45:31.000+01:00,"\"{\"\"openingTimes\"\":[{\"\"applicable_days\"\":31"
51d4b6b6-a095-1aa0-e100-80009459e03a,0.7272727272727273,51d4b6b6-a095-1aa0-e100-80009459e03a,JET WINNENDEN WAIBLINGER STR. 15,JET,WAIBLINGER STR.,15,71364,WINNENDEN,48.87531,9.39373,2014-03-18T16:45:31.000+01:00,"\"{\"\"openingTimes\"\":[{\"\"applicable_days\"\":31"
e1a15081-24cd-9107-e040-0b0a3dfe563c,0.6111111111111112,e1a15081-24cd-9107-e040-0b0a3dfe563c,"Berlin, Riesaer Str. 121",HEM,Riesaer Str.,121,12627,Berlin,52.53023,13.62457,2014-03-18T16:45:31.000+01:00,"\"{\"\"openingTimes\"\":[{\"\"applicable_days\"\":31"
00061950-0001-4444-8888-acdc00000001,0.8125,00061950-0001-4444-8888-acdc00000001,Peter Eggers GmbH,Peter Eggers GmbH,Bäder Strasse,14,25842,Ockholm,54.664810180664,8.8207101821899,2024-12-05T22:46:23.000+01:00,{}
bec3ef55-df6b-4794-9146-446d83f184aa,0.8888888888888888,bec3ef55-df6b-4794-9146-446d83f184aa,CLASSIC Asendorf,CLASSIC,Alte Heerstraße,67,27330,Asendorf,52.7764,9.0017,2014-03-18T16:45:31.000+01:00,{}
008b1750-78c1-414e-8018-64ce561f16a5,0.8636363636363636,008b1750-78c1-414e-8018-64ce561f16a5,TotalEnergies Putlitz,TotalEnergies,Pritzwalker Str.,11,16949,Putlitz,53.237716,12.055587,2014-03-18T16:45:31.000+01:00,"\"{\"\"openingTimes\"\":[{\"\"applicable_days\"\":31"
a0fff138-86af-4cba-8a54-c3b36a5d3661,0.6585365853658537,a0fff138-86af-4cba-8a54-c3b36a5d3661,Access Kelsterbach,Access,Rossertstr.,2,65451,Kelsterbach,50.066025,8.537291,2014-03-18T16:45:31.000+01:00,"\"{\"\"openingTimes\"\":[{\"\"applicable_days\"\":31"
dc2550a2-d42e-4222-95c6-ed2eb7bb9663,0.6086956521739131,dc2550a2-d42e-4222-95c6-ed2eb7bb9663,TotalEnergies Stadtilm,TotalEnergies,Ilmenauer Str.,2,99326,Stadtilm,50.767666,11.064826,2014-03-18T16:45:31.000+01:00,"\"{\"\"openingTimes\"\":[{\"\"applicable_days\"\":31"
6eb1075b-0eb5-9b65-e100-00000630df04,0.7727272727272727,6eb1075b-0eb5-9b65-e100-00000630df04,ENI,AGIP ENI,Sigmundstr.,141,90431,Nuernberg,49.44812,11.011881,2021-01-28T16:01:16.000+01:00,"\"{\"\"openingTimes\"\":[{\"\"applicable_days\"\":255"
a42b4ead-e655-46ac-b90a-7b841f273b86,0.8108108108108109,a42b4ead-e655-46ac-b90a-7b841f273b86,Access Hambuehren,Access,Celler Str.,27,29313,Hambuehren,52.634042,9.940472,2016-11-03T00:00:02.000+01:00,"\"{\"\"openingTimes\"\":[{\"\"applicable_days\"\":127"
4ac41989-605f-421f-99d0-d58ef8c9bda2,0.8260869565217391,4ac41989-605f-421f-99d0-d58ef8c9bda2,Harald Henn,Esso,Schriesheimer Str.,34,68526,Ladenburg,49.4718,8.6184,2019-01-18T23:30:06.000+01:00,"\"{\"\"openingTimes\"\":[{\"\"applicable_days\"\":31"
005056ba-7cb6-1ed2-bceb-61e340e86d1d,0.7297297297297297,005056ba-7cb6-1ed2-bceb-61e340e86d1d,star Tankstelle,STAR,Thietmarstraße 17,,39128,Magdeburg,52.158172,11.62637,2014-03-18T16:45:31.000+01:00,{}
b457468e-99be-4ebe-b0ac-4d346b72708e,1.0,b457468e-99be-4ebe-b0ac-4d346b72708e,BayWa Tankstelle Niederstotzingen,BayWa,Am Bahndamm,7,89168,Niederstotzingen,48.5375,10.24301,2016-04-14T00:00:01.000+02:00,{}
cb662e03-0925-4500-d140-d3bf89652c2a,1.0,cb662e03-0925-4500-d140-d3bf89652c2a,bft-Walther Wagner,bft - Walther,Wiesentheider Str.,20,96160,Geiselwind,49.7745,10.4649,2014-03-18T16:45:31.000+01:00,{}
de5c5581-0876-46f9-8b46-f85d38fea6d7,0.6829268292682927,de5c5581-0876-46f9-8b46-f85d38fea6d7,Walther Tankstelle,bft - Walther,Kissinger Str.,42,97762,Hammelburg,50.1153,9.8941,2014-05-16T00:00:01.000+02:00,{}
23dcb7cf-9d0b-4c88-a78e-5e79375daf9e,0.6774193548387096,23dcb7cf-9d0b-4c88-a78e-5e79375daf9e,AVIA Xpress Station,Avia,Vogelherdstr.,14,91227,Leinburg,49.46091,11.28222,2017-06-15T23:30:06.000+02:00,{}
723408ed-8256-48d4-b3a1-d15eb66ea7c7,0.9411764705882353,723408ed-8256-48d4-b3a1-d15eb66ea7c7,Shell Traunstein Rupertistr. 36,Shell,Rupertistr.,36,83278,Traunstein,47.864668,12.629616,2014-03-18T16:45:31.000+01:00,"\"{\"\"openingTimes\"\":[{\"\"applicable_days\"\":192"
80f20acc-baf6-46a4-bef9-3670cd2a7ba7,1.0,80f20acc-baf6-46a4-bef9-3670cd2a7ba7,Shell Freyung Grafenauer Str. 45,Shell,Grafenauer Str.,45,94078,Freyung,48.81352,13.545373,2014-03-18T16:45:31.000+01:00,"\"{\"\"openingTimes\"\":[{\"\"applicable_days\"\":255"
5665dcd4-1489-4782-ad8e-608178272da5,0.9117647058823529,5665dcd4-1489-4782-ad8e-608178272da5,Shell Vechta Falkenrotter Str. 16,Shell,Falkenrotter Str.,16,49377,Vechta,52.731852,8.287143,2014-03-18T16:45:31.000+01:00,"\"{\"\"openingTimes\"\":[{\"\"applicable_days\"\":192"
eb1919d1-0b94-4b87-b1eb-1dd5efba10d8,0.6511627906976745,eb1919d1-0b94-4b87-b1eb-1dd5efba10d8,Shell Markgroeningen Oberriexinger St. 12,Shell,Oberriexinger St.,12,71706,Markgroeningen,48.937778,9.053104,2014-03-18T16:45:31.000+01:00,{}
68235d5e-60f6-40ed-9e66-b5ea60adc1dd,0.7027027027027027,68235d5e-60f6-40ed-9e66-b5ea60adc1dd,Shell Berlin Berliner Str. 32,Shell,Berliner Str.,32,13127,Berlin,52.600956,13.432466,2014-03-18T16:45:31.000+01:00,"\"{\"\"openingTimes\"\":[{\"\"applicable_days\"\":255"
b2257136-d1b9-4a8f-9862-3d8a9ee5706e,0.7446808510638298,b2257136-d1b9-4a8f-9862-3d8a9ee5706e,Shell Bielefeld Engersche Str. 98,Shell,Engersche Str.,98,33611,Bielefeld,52.051238,8.551657,2014-03-18T16:45:31.000+01:00,{}
21c4eafe-34b0-4b27-aa82-751d8659e4a9,0.9166666666666666,21c4eafe-34b0-4b27-aa82-751d8659e4a9,Aral Tankstelle,ARAL,Wiedtalstraße,24,53577,Neustadt (Wied),50.620808,7.427844,2014-03-18T16:45:31.000+01:00,"\"{\"\"openingTimes\"\":[{\"\"applicable_days\"\":64"
41b3cfcf-556f-4685-9af0-13b19f7d2c2c,0.84,41b3cfcf-556f-4685-9af0-13b19f7d2c2c,Aral Tankstelle,ARAL,R.-Luxemburg-Straße,105,06917,Jessen,51.796673,12.974008,2014-03-18T16:45:31.000+01:00,{}
9da744e2-ca11-4d21-ab18-df774798c37e,0.9259259259259259,9da744e2-ca11-4d21-ab18-df774798c37e,Aral Tankstelle,ARAL,Wildbader Straße,55,75394,Oberreichenbach,48.73419,8.662784,2014-03-18T16:45:31.000+01:00,"\"{\"\"openingTimes\"\":[{\"\"applicable_days\"\":64"
ec4d1d2e-9cdd-48e0-b690-a5bf92c9bf0d,1.0,ec4d1d2e-9cdd-48e0-b690-a5bf92c9bf0d,ENI,AGIP ENI,Oberthann Nr.,9,85301,Schweitenkirchen,48.50747,11.58537,2014-03-20T00:00:01.000+01:00,{}
c95dd464-cbc7-5dd6-818c-c914d283fa0b,1.0,c95dd464-cbc7-5dd6-818c-c914d283fa0b,Hannover,Hoyer,Kleiner Holzhägen,1,30559,Hannover,52.35692214966,9.87291049957,2018-03-24T23:30:06.000+01:00,{}
005056ba-7cb6-1ed2-bceb-9d5672a1ed3c,0.7777777777777778,005056ba-7cb6-1ed2-bceb-9d5672a1ed3c,star Tankstelle,STAR,Kölner Straße,69,45481,Mülheim,51.397989,6.875842,2014-03-18T16:45:31.000+01:00,"\"{\"\"overrides\"\":[{\"\"startp\"\":\"\"2024-12-31 05:00\"\""
0b785e87-43e3-4dd3-916d-5e58a77b4665,0.9705882352941176,0b785e87-43e3-4dd3-916d-5e58a77b4665,Aral Tankstelle,ARAL,Hauptstraße,34,78132,Hornberg,48.21382,8.227461,2014-03-18T16:45:31.000+01:00,"\"{\"\"openingTimes\"\":[{\"\"applicable_days\"\":64"
f604797a-7241-4338-bb84-c87bae899d7e,0.7941176470588235,f604797a-7241-4338-bb84-c87bae899d7e,Esso Tankstelle,ESSO,IM INDUSTRIEGEBIET 1,"",01683,BODENBACH,51.082586,13.273426,2014-03-18T16:45:31.000+01:00,{}
3106289a-423b-4f3c-8e07-b59fc922b312,0.9047619047619048,3106289a-423b-4f3c-8e07-b59fc922b312,TotalEnergies Ingolstadt,TotalEnergies,Manchinger Str.,84,85053,Ingolstadt,48.752958,11.451818,2014-03-18T16:45:31.000+01:00,{}
38d71e05-4c96-4c3a-b005-5844d7e52673,0.84,38d71e05-4c96-4c3a-b005-5844d7e52673,TotalEnergies Autohof Alfeld,TotalEnergies Autohof,Autohof Vogelherd,4,91236,Alfeld,49.410373,11.544802,2014-03-18T16:45:31.000+01:00,{}
011ba4a2-c12b-4d3f-a96d-8cbf1d1e8585,0.9166666666666666,011ba4a2-c12b-4d3f-a96d-8cbf1d1e8585,AH Hohenstein,ARAL,Broichhofstrasse,8,40880,Ratingen,51.29028,6.804525,2020-03-20T14:01:14.000+01:00,{}
e5a8f51b-c9b3-463a-b4be-bc8ff75eb7b1,0.75,e5a8f51b-c9b3-463a-b4be-bc8ff75eb7b1,LEIPZIG,AGIP ENI,Hallesche Str.,182,04159,Leipzig,51.38467256875,12.273064110511,2014-03-20T00:00:01.000+01:00,"\"{\"\"openingTimes\"\":[{\"\"applicable_days\"\":63"
309578ac-93ab-4256-a03b-a4b6f523b855,0.8148148148148148,309578ac-93ab-4256-a03b-a4b6f523b855,Shell Schackendorf A21 Schackendorf Ost,Shell,A21 Schackendorf Ost,,23795,Schackendorf,53.95912,10.263028,2014-03-18T16:45:31.000+01:00,{}
ee5bf10a-1c15-4fe4-9b48-12fb39758738,0.8518518518518519,ee5bf10a-1c15-4fe4-9b48-12fb39758738,bft-willer Station 141,bft-willer,Waldschlößchenstr.,95,25746,Heide,54.2088,9.1097,2014-03-18T16:45:31.000+01:00,"\"{\"\"openingTimes\"\":[{\"\"applicable_days\"\":32"
eed1deb9-4bc7-426f-a7f3-5015e63b7be8,0.5531914893617021,eed1deb9-4bc7-426f-a7f3-5015e63b7be8,Shell Dietzenbach Justus-von-Liebig-Str. 25,Shell,Justus-von-Liebig-Str.,25,63128,Dietzenbach,50.002606,8.793691,2014-03-18T16:45:31.000+01:00,{}
fd502876-0c1e-4828-97d0-499bb51064fc,0.84375,fd502876-0c1e-4828-97d0-499bb51064fc,Aral Tankstelle,ARAL,Koppelberg,1,24159,Kiel-Friedrichsort,54.403286,10.166145,2014-03-18T16:45:31.000+01:00,{}
ed5ec5f4-4bb8-40a1-8e61-7899f478d514,0.9166666666666666,ed5ec5f4-4bb8-40a1-8e61-7899f478d514,Aral Tankstelle,ARAL,Bundesstraße,1,59423,Unna,51.532104,7.701102,2014-03-18T16:45:31.000+01:00,{}
2dfc81ca-f872-4527-be2e-fc127cbbd123,0.7407407407407407,2dfc81ca-f872-4527-be2e-fc127cbbd123,Aral Tankstelle,ARAL,Gartenfelder Straße,71,13599,Berlin,52.543568,13.243265,2014-03-18T16:45:31.000+01:00,{}
cd08aa1a-c845-4c26-a7ac-77c7ac11bab1,0.9032258064516129,cd08aa1a-c845-4c26-a7ac-77c7ac11bab1,Aral Tankstelle,ARAL,Äuß. Brucker Straße,171,91058,Erlangen,49.577007,10.986522,2014-03-18T16:45:31.000+01:00,"\"{\"\"openingTimes\"\":[{\"\"applicable_days\"\":127"
95cf43d0-b21a-480f-8dc4-4eb75e48d9c9,0.6923076923076923,95cf43d0-b21a-480f-8dc4-4eb75e48d9c9,Martin Kriese,Shell,Kielseng,1,24937,Flensburg,54.80138,9.44182,2014-03-18T16:45:31.000+01:00,"\"{\"\"openingTimes\"\":[{\"\"applicable_days\"\":64"
eddbc889-59a5-4b0e-a256-a93a7856985b,0.8378378378378378,eddbc889-59a5-4b0e-a256-a93a7856985b,TotalEnergies Erfurt-Stotternheim,TotalEnergies,Erfurter Landstr.,49,99095,Erfurt-Stotternheim,51.04624,11.042137,2014-03-18T16:45:31.000+01:00,"\"{\"\"openingTimes\"\":[{\"\"applicable_days\"\":31"
e1a15081-256e-9107-e040-0b0a3dfe563c,0.5555555555555556,e1a15081-256e-9107-e040-0b0a3dfe563c,"Heidenheim, Carl-Schwenk-Str. 44",HEM,Carl-Schwenk-Str.,44,89522,Heidenheim,48.657419,10.160706,2014-03-18T16:45:31.000+01:00,"\"{\"\"openingTimes\"\":[{\"\"applicable_days\"\":127"
e1a15081-25c3-9107-e040-0b0a3dfe563c,0.6511627906976745,e1a15081-25c3-9107-e040-0b0a3dfe563c,"Siegen, Wallhausenstr. 40",HEM,Wallhausenstr.,40,57072,Siegen,50.86449166,8.00253611,2014-03-18T16:45:31.000+01:00,"\"{\"\"openingTimes\"\":[{\"\"applicable_days\"\":15"
618cad21-d760-4a4f-acb5-e30c4051c7ff,0.7297297297297297,618cad21-d760-4a4f-acb5-e30c4051c7ff,bft- Tankstelle Mügeln,BFT,Grauschwitzer Str.,2,04769,Mügeln,51.2336,13.05921,2014-03-18T16:45:31.000+01:00,"\"{\"\"overrides\"\":[{\"\"startp\"\":\"\"2024-12-31 00:00\"\""
7efff75d-a895-4109-843d-08f6418be895,0.7222222222222222,7efff75d-a895-4109-843d-08f6418be895,AVIA Tankstelle,AVIA,Bahnhofstraße,35,96524,Föritztal,50.30691345,11.24299838,2014-03-18T16:45:31.000+01:00,{}
5e2e90b0-c3db-4328-34ea-b8272d497251,0.6923076923076923,5e2e90b0-c3db-4328-34ea-b8272d497251,Gulf Naundorf,GULF,Mügelner Str.,1,04769,Naundorf,51.2575,13.1009,2014-03-18T16:45:31.000+01:00,"\"{\"\"openingTimes\"\":[{\"\"applicable_days\"\":63"
e5a833d7-9b62-4c73-96a2-cf6725528063,0.6129032258064516,e5a833d7-9b62-4c73-96a2-cf6725528063,Greenline Braunschweig,Greenline,Hansestr.,84,38112,Braunschweig,52.3107,10.506,2014-12-09T00:00:01.000+01:00,{}
0933c436-6e23-4cb6-8610-13528475f37a,0.8,0933c436-6e23-4cb6-8610-13528475f37a,"Ertingen, Rudolf-Diesel-Str. 2",HEM,Rudolf-Diesel-Str.,2,88521,Ertingen,48.108251,9.463619,2018-11-21T23:30:07.000+01:00,"\"{\"\"openingTimes\"\":[{\"\"applicable_days\"\":127"
898ef7d1-3b38-4278-b208-b98280f73640,1.0,898ef7d1-3b38-4278-b208-b98280f73640,AVIA Tankstelle,AVIA,Eggenfeldener Str.,28,94424,Arnstorf,48.55642,12.81195,2015-10-03T00:00:01.000+02:00,{}
8f4e66ff-0e9f-4cf8-a972-5514c8f10ef8,0.9,8f4e66ff-0e9f-4cf8-a972-5514c8f10ef8,ENI,AGIP ENI,Vilsecker Str.,2,93057,Regensburg,49.057192,12.127919,2014-03-20T00:00:01.000+01:00,"\"{\"\"openingTimes\"\":[{\"\"applicable_days\"\":31"
8b03f10e-8d8f-4f72-a26e-ab1006760abe,0.8421052631578947,8b03f10e-8d8f-4f72-a26e-ab1006760abe,AVIA Tankstelle,AVIA,Neustädter-Bucht West,1,23730,Sierksdorf,54.06802,10.75612,2014-03-18T16:45:31.000+01:00,{}
8333626a-899f-4f27-81d7-9481b9a2645d,0.6296296296296297,8333626a-899f-4f27-81d7-9481b9a2645d,Esso Station,ESSO,Ooser Hauptstr. 6,"",76532,Baden-Baden,48.788239,8.194336,2014-03-18T16:45:31.000+01:00,"\"{\"\"openingTimes\"\":[{\"\"applicable_days\"\":31"
fb45f7b0-c260-427e-931f-0c935f92abbe,1.0,fb45f7b0-c260-427e-931f-0c935f92abbe,Esso Tankstelle,ESSO,HEUCHELHEIMER STR. 2,"",67246,DIRMSTEIN,49.565089,8.259125,2014-03-18T16:45:31.000+01:00,"\"{\"\"openingTimes\"\":[{\"\"applicable_days\"\":31"
09f1aa50-83d0-487d-9397-87186d164093,0.7368421052631579,09f1aa50-83d0-487d-9397-87186d164093,Esso Tankstelle,ESSO,MUEHLENBLICK 1,"",17348,WOLDEGK,53.46353,13.564122,2014-03-18T16:45:31.000+01:00,{}
67f08580-98a7-403f-b3a4-6f76338ea5d6,0.9090909090909091,67f08580-98a7-403f-b3a4-6f76338ea5d6,Esso Tankstelle,ESSO,MAERKISCHE STR. 239,"",44141,DORTMUND,51.496456,7.490302,2014-03-18T16:45:31.000+01:00,"\"{\"\"openingTimes\"\":[{\"\"applicable_days\"\":31"
20b44766-01a5-4948-a4b9-8ff5279b7e23,0.8888888888888888,20b44766-01a5-4948-a4b9-8ff5279b7e23,Quakenbrück Tankautomat,Lanfer,Menslagerstraße,48-50,49610,Quakenbrück,52.67399,7.93853,2024-06-21T23:05:08.000+02:00,{}
2a31c294-2934-4512-822a-da5414233ce1,1.0,2a31c294-2934-4512-822a-da5414233ce1,AGRAVIS Ems-Jade GmbH,Raiffeisen,Groß-Charlottengroden,,26409,Wittmund,53.67512,7.796906,2015-03-18T00:00:01.000+01:00,{}
46bba2f8-b3a4-4f5c-af4e-15d4226641cf,1.0,46bba2f8-b3a4-4f5c-af4e-15d4226641cf,Aral Tankstelle,ARAL,Koenigschaffhauser Straße,,79346,Endingen,48.143505,7.695344,2014-03-18T16:45:31.000+01:00,{}
d912088a-e6a7-4f86-90d3-d1fc7960692a,0.7575757575757576,d912088a-e6a7-4f86-90d3-d1fc7960692a,Tankstelle Grüne,Tankstelle Grüne,Hauptstraße,210,59846,Sundern,51.33642,7.999383,2014-03-18T16:45:31.000+01:00,{}
da3180d3-9cdf-4d5a-ac26-1e909e1c42da,0.42857142857142855,da3180d3-9cdf-4d5a-ac26-1e909e1c42da,Vereinigte Saatzuchten eG,Raiffeisen,Hilmsener Str.,16,29413,Dähre,52.79882,10.914455,2014-03-18T16:45:31.000+01:00,{}
51d4b6c1-a095-1aa0-e100-80009459e03a,0.90625,51d4b6c1-a095-1aa0-e100-80009459e03a,JET NEU-ULM MEMMINGER STR. 54,JET,MEMMINGER STR.,54,89231,NEU-ULM,48.38549,10.00394,2014-03-18T16:45:31.000+01:00,"\"{\"\"openingTimes\"\":[{\"\"applicable_days\"\":31"
51d4b506-a095-1aa0-e100-80009459e03a,0.75,51d4b506-a095-1aa0-e100-80009459e03a,JET MUENCHEN VERDISTR. 142,JET,VERDISTR.,142,81247,MUENCHEN,48.16489,11.4593,2014-03-18T16:45:31.000+01:00,{}
31f5c95c-7d1f-4f74-8959-d04d7028d16d,0.8076923076923077,31f5c95c-7d1f-4f74-8959-d04d7028d16d,Sprint Salzmuende Benkendorfer Str.,Sprint,Benkendorfer Str.,1,06198,Salzmuende,51.524788,11.826462,2015-04-01T00:00:01.000+02:00,"\"{\"\"openingTimes\"\":[{\"\"applicable_days\"\":31"
111d929a-94c9-42f2-8c36-2435a50e3f16,0.7083333333333334,111d929a-94c9-42f2-8c36-2435a50e3f16,Baykan Özgürcü,Westfalen,Preussenstr.,2a,26388,Wilhelmshaven,53.56684,8.09834,2014-03-18T16:45:31.000+01:00,{}
4db3d30a-dcad-49e3-9cef-610f2f2d0eb1,0.8571428571428571,4db3d30a-dcad-49e3-9cef-610f2f2d0eb1,Sprint Neusalza-Spremberg Zittauer Str.,Sprint,Zittauer Str.,58,02742,Neusalza-Spremberg,51.036644,14.544189,2014-03-18T16:45:31.000+01:00,"\"{\"\"openingTimes\"\":[{\"\"applicable_days\"\":31"
56dadafd-828f-4e1d-9008-1bfe0d85b5ad,0.9166666666666666,56dadafd-828f-4e1d-9008-1bfe0d85b5ad,Shell Penig B 95,Shell,B 95,,09322,Penig,50.921007,12.716239,2014-03-18T16:45:31.000+01:00,"\"{\"\"overrides\"\":[{\"\"startp\"\":\"\"2025-01-01 09:00\"\""
9d5ad5db-6db4-41d2-8a1d-6745d5002ff1,0.6521739130434783,9d5ad5db-6db4-41d2-8a1d-6745d5002ff1,Roland Schmidt,Westfalen,Holtwicker Str.,31,48653,Coesfeld,51.95288,7.16396,2014-03-18T16:45:31.000+01:00,"\"{\"\"openingTimes\"\":[{\"\"applicable_days\"\":64"
106bd84c-d65a-40ef-b24f-d86833956294,0.6585365853658537,106bd84c-d65a-40ef-b24f-d86833956294,CLASSIC Langballig,CLASSIC,Poststr.,5,24977,Langballig,54.7976,9.63537,2014-03-18T16:45:31.000+01:00,"\"{\"\"overrides\"\":[{\"\"startp\"\":\"\"2024-12-31 06:00\"\""
cbe4b392-3217-4912-acfe-c6a045ee863b,0.7105263157894737,cbe4b392-3217-4912-acfe-c6a045ee863b,CLASSIC Goldenstedt - Ellenstedt,CLASSIC,Wildeshauser Str.,11,49424,Goldenstedt,52.8138,8.41103,2014-03-18T16:45:31.000+01:00,"\"{\"\"overrides\"\":[{\"\"startp\"\":\"\"2024-12-31 08:00\"\""
dc644e01-70fd-49d1-8229-4a07565144cd,0.9,dc644e01-70fd-49d1-8229-4a07565144cd,T Schwerin,T,An der Crivitzer Ch.,12,19061,Schwerin,53.603712,11.439055,2014-03-18T16:45:31.000+01:00,"\"{\"\"openingTimes\"\":[{\"\"applicable_days\"\":31"
d1b225c4-4291-46b9-979a-c039c02e383d,0.5510204081632653,d1b225c4-4291-46b9-979a-c039c02e383d,AVIA Tankstelle,AVIA,Brügger Chaussee,26,24582,Wattenbek,54.17493,10.05518,2014-03-18T16:45:31.000+01:00,{}
7f1e3471-cddb-486d-acb6-007e5a560b61,0.7857142857142857,7f1e3471-cddb-486d-acb6-007e5a560b61,AVIA Tankstelle,AVIA,Coburger Straße,24,96479,Weitramsdorf,50.25669,10.88362,2014-03-18T16:45:31.000+01:00,{}
c5b73a5e-0800-43d9-a4cd-365c5b46ef26,1.0,c5b73a5e-0800-43d9-a4cd-365c5b46ef26,"Argos Tankstelle, Riswicker Straße, Klev",Argos,Riswicker Str.,87,47533,Kleve,51.787995,6.15679,2014-03-18T16:45:31.000+01:00,{}
a31ade4a-533d-465a-8f81-678bfd9618ab,0.8,a31ade4a-533d-465a-8f81-678bfd9618ab,Tankcenter Kassel,Tankcenter,Leipziger Str.,22,34125,Kassel,51.311289,9.511093,2014-03-18T16:45:31.000+01:00,{}
f3c0c60e-7709-486b-a7d8-eea21ad0c2d9,0.7037037037037037,f3c0c60e-7709-486b-a7d8-eea21ad0c2d9,SB Berlin Fraunhofer Straße 33-36,SB,Fraunhofer Straße,33-36,10587,Berlin,52.5144,13.3219,2014-03-18T16:45:31.000+01:00,{}
5c751aeb-d343-4e51-bd77-d0204dfce418,0.6785714285714286,5c751aeb-d343-4e51-bd77-d0204dfce418,ISMANING - MUENCHNER STR.57,AGIP ENI,Muenchner Str.,57,85737,Ismaning,48.223357665253,11.669466114702,2014-03-20T00:00:01.000+01:00,"\"{\"\"openingTimes\"\":[{\"\"applicable_days\"\":255"
91963aed-d3c3-412e-9834-fb4240d6910d,0.8181818181818182,91963aed-d3c3-412e-9834-fb4240d6910d,Walther Tankstelle,bft - Walther,Hanauer Str.,66,63801,Kleinostheim,50.0043,9.0581,2016-06-24T00:00:01.000+02:00,{}
515ad075-da11-4c05-8e13-cbff1fb3698e,0.725,515ad075-da11-4c05-8e13-cbff1fb3698e,BARS Tankstellenservice GmbH,bft - Walther,Hauptstr.,1,97490,Poppenhausen,50.1061,10.1444,2014-05-16T00:00:01.000+02:00,{}
029d5fd5-f749-4056-9fcb-e3434e448182,0.85,029d5fd5-f749-4056-9fcb-e3434e448182,Shell Laichingen Rudolf-Diesel-Str. 1,Shell,Rudolf-Diesel-Str.,1,89150,Laichingen,48.494329,9.710649,2014-03-18T16:45:31.000+01:00,{}
c705d653-39b3-4bd9-9cd5-6b51366e88e9,0.7567567567567568,c705d653-39b3-4bd9-9cd5-6b51366e88e9,Shell Ludwigsburg Stuttgarter Str. 70,Shell,Stuttgarter Str.,70,71638,Ludwigsburg,48.888161,9.193774,2014-03-18T16:45:31.000+01:00,{}
ad51687e-9faf-45d1-a53d-5f65af635513,0.8571428571428571,ad51687e-9faf-45d1-a53d-5f65af635513,Shell Villingen-Schwenningen Rottweiler Str. 149,Shell,Rottweiler Str.,149,78056,Villingen-Schwenningen,48.064106,8.556593,2014-03-18T16:45:31.000+01:00,"\"{\"\"overrides\"\":[{\"\"startp\"\":\"\"2025-01-01 09:00\"\""
8ee9d344-43a5-465c-b896-d060cd00d237,1.0,8ee9d344-43a5-465c-b896-d060cd00d237,Shell Guetersloh Berliner Str. 228,Shell,Berliner Str.,228,33330,Guetersloh,51.91706,8.393904,2014-03-18T16:45:31.000+01:00,"\"{\"\"openingTimes\"\":[{\"\"applicable_days\"\":192"
2f0d5ed0-7935-4d5e-b623-aa20ce2ba334,0.8529411764705882,2f0d5ed0-7935-4d5e-b623-aa20ce2ba334,Shell Hamburg Theodor-Heuss-Platz,Shell,Theodor-Heuss-Platz,,20354,Hamburg,53.561055,9.990878,2014-03-18T16:45:31.000+01:00,{}
0ab9037f-2c60-46ef-acf7-73a3ad0bc699,0.8620689655172413,0ab9037f-2c60-46ef-acf7-73a3ad0bc699,Shell Huenfelden-Kirberg Hainbuchenstr. 1,Shell,Hainbuchenstr.,1,65597,Huenfelden-Kirberg,50.309612,8.160663,2014-03-18T16:45:31.000+01:00,"\"{\"\"openingTimes\"\":[{\"\"applicable_days\"\":31"
3ca5f739-7334-4e9e-8a26-f9e175d3d57f,0.76,3ca5f739-7334-4e9e-8a26-f9e175d3d57f,Shell Fürstenwalde/Spree August-Bebel-Str. 71,Shell,August-Bebel-Str.,71,15517,Fürstenwalde/Spree,52.337634,14.073934,2014-03-18T16:45:31.000+01:00,"\"{\"\"openingTimes\"\":[{\"\"applicable_days\"\":255"
6ab6f8d4-e9f1-4c73-8a20-852b8cd73bc4,0.7428571428571429,6ab6f8d4-e9f1-4c73-8a20-852b8cd73bc4,Aral Tankstelle,ARAL,Hauptstraße,86,12159,Berlin,52.474113,13.338869,2014-03-18T16:45:31.000+01:00,"\"{\"\"openingTimes\"\":[{\"\"applicable_days\"\":127"
87141cea-66d7-420a-9c8d-20558464cef8,0.96,87141cea-66d7-420a-9c8d-20558464cef8,Aral Tankstelle,ARAL,Trierer Straße,90,66839,Schmelz,49.463,6.851665,2014-03-18T16:45:31.000+01:00,"\"{\"\"openingTimes\"\":[{\"\"applicable_days\"\":64"
88f2a207-b839-4d17-8394-4fa11bec7d47,0.8214285714285714,88f2a207-b839-4d17-8394-4fa11bec7d47,Aral Tankstelle,ARAL,Willmenroder Straße,32,56457,Westerburg,50.556686,7.973047,2014-03-18T16:45:31.000+01:00,"\"{\"\"openingTimes\"\":[{\"\"applicable_days\"\":64"
50b9f4ea-f4a7-40f8-b1a1-18753fb81af9,0.92,50b9f4ea-f4a7-40f8-b1a1-18753fb81af9,Aral Tankstelle,ARAL,Merseburger Straße,355,06132,Halle,51.44012,11.984517,2014-03-18T16:45:31.000+01:00,{}
c7d02a8b-05b5-4383-9c44-735c6d4c201b,0.6511627906976745,c7d02a8b-05b5-4383-9c44-735c6d4c201b,Tankstelle Harting Rehren,,Rehrener Straße,28,31749,Auetal,52.23402,9.23929,2021-05-08T00:01:18.000+02:00,"\"{\"\"openingTimes\"\":[{\"\"applicable_days\"\":31"
116fd007-01bc-49ac-accd-71ec5d7c25f0,0.9545454545454546,116fd007-01bc-49ac-accd-71ec5d7c25f0,Esso Station,ESSO,Landshuter Str. 42,"",84416,Taufkirchen (Vils),48.352433,12.129775,2014-03-18T16:45:31.000+01:00,{}
3261710a-e951-4494-9cc1-2bd717a273c2,0.5909090909090909,3261710a-e951-4494-9cc1-2bd717a273c2,Wengel & Dettelbacher (VARO Energy D),Wengel&Dettelbacher,Georg Heinrich Appelstr.,14a,97234,Reichenberg,49.68911,9.943997,2016-11-16T00:00:01.000+01:00,{}
e1a15081-253b-9107-e040-0b0a3dfe563c,0.8076923076923077,e1a15081-253b-9107-e040-0b0a3dfe563c,"Torgelow, Eggesiner Str. 9e",HEM,Eggesiner Str. E,9,17358,Torgelow,53.637139,14.029884,2014-03-18T16:45:31.000+01:00,"\"{\"\"openingTimes\"\":[{\"\"applicable_days\"\":127"
51d4b47f-a095-1aa0-e100-80009459e03a,0.7333333333333333,51d4b47f-a095-1aa0-e100-80009459e03a,JET AICHACH INDUSTRIESTR. 30,JET,INDUSTRIESTR.,30,86551,AICHACH,48.43627,11.108,2014-03-18T16:45:31.000+01:00,"\"{\"\"openingTimes\"\":[{\"\"applicable_days\"\":31"
26af5e3d-aa78-4385-ae9f-e650ed2d25fb,0.8888888888888888,26af5e3d-aa78-4385-ae9f-e650ed2d25fb,Cuxhaven,SCORE,Suederwisch,30,27474,Cuxhaven,53.854128,8.687394,2014-03-18T16:45:31.000+01:00,"\"{\"\"overrides\"\":[{\"\"startp\"\":\"\"2024-12-31 07:00\"\""
848e889a-95c9-4b6c-b379-8d6f0d4ca039,1.0,848e889a-95c9-4b6c-b379-8d6f0d4ca039,Tankstation Sedelmeier,Freie Tankstelle,Vogesenstrasse,25,79258,Hartheim am Rhein,47.934616,7.625252,2014-05-24T00:00:01.000+02:00,"\"{\"\"openingTimes\"\":[{\"\"applicable_days\"\":31"
032a2e87-12bc-4a2f-98c0-ad5b664e1d72,0.6111111111111112,032a2e87-12bc-4a2f-98c0-ad5b664e1d72,AVIA Tankstelle,AVIA,Neumarkter Str.,12,92283,Lauterhofen,49.366211227911,11.601996759828,2016-08-21T00:00:01.000+02:00,{}
404b23d9-3446-4b68-ab7e-3fdced82c872,0.8888888888888888,404b23d9-3446-4b68-ab7e-3fdced82c872,TSB Tankstellenbetriebs-GmbH,Freie Tankstelle,Ahnfeldstr.,12,40239,Düsseldorf,51.238475,6.797713,2014-03-18T16:45:31.000+01:00,{}
8192ee38-08e2-4689-a5e3-d7070da9aa81,0.8333333333333334,8192ee38-08e2-4689-a5e3-d7070da9aa81,TotalEnergies Autohof  Ransbach-Baumbach,TotalEnergies Autohof,Autohof Reimersheck,3,56424,Mogendorf,50.482766,7.749125,2014-03-18T16:45:31.000+01:00,{}
70726c80-fd30-45f8-87a6-8acf0c0000db,0.8333333333333334,70726c80-fd30-45f8-87a6-8acf0c0000db,TotalEnergies Luckau,TotalEnergies,Berliner Str.,1,15926,Luckau,51.851696,13.703166,2014-03-18T16:45:31.000+01:00,{}
fff261ef-ff00-4d2b-8669-ec2f7c57cd93,0.7857142857142857,fff261ef-ff00-4d2b-8669-ec2f7c57cd93,Esso Creditank Kittlitz,Esso,Am Bahnhof,27,02708,Löbau-Kittlitz,51.1252,14.6837,2014-03-18T16:45:31.000+01:00,{}
0f7a816f-c2c2-4023-8117-c0677140bf8b,0.7619047619047619,0f7a816f-c2c2-4023-8117-c0677140bf8b,AVIA Tankstelle,AVIA,Bei der Lohmühle,19,23554,Lübeck,53.88033,10.67222,2014-03-18T16:45:31.000+01:00,{}
005056ba-7cb6-1ed2-bceb-52f6110f4d12,0.7560975609756098,005056ba-7cb6-1ed2-bceb-52f6110f4d12,famila Tankstelle,FAMILA,Mecklenburger Straße,1-3,21481,Lauenburg,53.38483,10.54398,2014-03-18T16:45:31.000+01:00,"\"{\"\"overrides\"\":[{\"\"startp\"\":\"\"2024-12-31 07:00\"\""
a5d2cd34-398b-4c23-b960-0cc90652f397,0.8055555555555556,a5d2cd34-398b-4c23-b960-0cc90652f397,Shell Koeln Deutz-Kalker Str. 103,Shell,Deutz-Kalker Str.,103,50679,Koeln,50.937134,6.991721,2019-08-17T23:30:06.000+02:00,{}
9c77cd68-0e8c-44b3-9b26-be948bd9da76,0.7647058823529411,9c77cd68-0e8c-44b3-9b26-be948bd9da76,Shell Regensburg Rennweg 7,Shell,Rennweg,7,93049,Regensburg,49.01261,12.054195,2014-03-18T16:45:31.000+01:00,"\"{\"\"openingTimes\"\":[{\"\"applicable_days\"\":255"
1b098715-0f1b-494c-9baa-0f7f98f94e64,0.7857142857142857,1b098715-0f1b-494c-9baa-0f7f98f94e64,Shell Püttlingen Bahnhofstr. 76,Shell,Bahnhofstr.,76,66346,Püttlingen,49.281409,6.882635,2014-03-18T16:45:31.000+01:00,"\"{\"\"openingTimes\"\":[{\"\"applicable_days\"\":224"
3bf40d35-76a8-48e0-8960-641e50d2aa64,0.7941176470588235,3bf40d35-76a8-48e0-8960-641e50d2aa64,Aral Tankstelle,ARAL,Auf der Held,2,56305,Puderbach,50.593323,7.60749,2014-03-18T16:45:31.000+01:00,"\"{\"\"openingTimes\"\":[{\"\"applicable_days\"\":64"
537a56b9-3cf5-4f67-bfeb-7d0de35aa397,0.7241379310344828,537a56b9-3cf5-4f67-bfeb-7d0de35aa397,Aral Tankstelle,ARAL,Titiseestraße,21,79822,Titisee-Neustadt,47.919575,8.205113,2014-03-18T16:45:31.000+01:00,"\"{\"\"openingTimes\"\":[{\"\"applicable_days\"\":127"
0551cec3-f8ea-4a32-85dc-da70439959f2,0.7142857142857143,0551cec3-f8ea-4a32-85dc-da70439959f2,Aral Tankstelle,ARAL,Habichtstraße,39,22305,Hamburg,53.59096,10.056518,2014-03-18T16:45:31.000+01:00,"\"{\"\"openingTimes\"\":[{\"\"applicable_days\"\":96"
3805e83a-707c-4cb9-b967-205122199d2e,0.7407407407407407,3805e83a-707c-4cb9-b967-205122199d2e,Aral Tankstelle,ARAL,Schwarzwaldstrasse,246,79117,Freiburg,47.987007,7.895689,2014-03-18T16:45:31.000+01:00,"\"{\"\"openingTimes\"\":[{\"\"applicable_days\"\":64"
ab1c0b11-8992-4981-9926-53441b11ea8a,0.8571428571428571,ab1c0b11-8992-4981-9926-53441b11ea8a,Aral Tankstelle,ARAL,Kleine Brückenstraße,34,61352,Bad Homburg,50.225307,8.67737,2014-03-18T16:45:31.000+01:00,"\"{\"\"openingTimes\"\":[{\"\"applicable_days\"\":64"
e6b3bc9d-b5a1-47b7-8c55-0f400da945d9,0.7777777777777778,e6b3bc9d-b5a1-47b7-8c55-0f400da945d9,Aral Tankstelle,ARAL,Erlanger Straße,33,91080,Uttenreuth,49.596264,11.068797,2014-03-18T16:45:31.000+01:00,"\"{\"\"openingTimes\"\":[{\"\"applicable_days\"\":64"
7d09ea41-77b4-4e0a-b2e1-5611b990ca3c,0.9666666666666667,7d09ea41-77b4-4e0a-b2e1-5611b990ca3c,Aral Tankstelle,ARAL,Luetticher Straße,108,40547,Düsseldorf,51.24112,6.743643,2014-03-18T16:45:31.000+01:00,{}
e120be23-497c-4a80-b9bf-0ad04b100607,0.9130434782608695,e120be23-497c-4a80-b9bf-0ad04b100607,Aral Tankstelle,ARAL,Schiffenberger Weg,68,35394,Gießen,50.574158,8.684971,2014-03-18T16:45:31.000+01:00,{}
2ac9bf17-7e79-402b-92d0-dabccbd86389,0.75,2ac9bf17-7e79-402b-92d0-dabccbd86389,Aral Tankstelle,ARAL,Giessener Straße,29,35423,Lich,50.524536,8.817428,2014-03-18T16:45:31.000+01:00,{}
fa87e70d-ca0e-48e3-a8ff-773d73ae2b84,0.8421052631578947,fa87e70d-ca0e-48e3-a8ff-773d73ae2b84,Aral Tankstelle,ARAL,Im I. Westfeld,35,44388,Dortmund,51.497047,7.332839,2014-03-18T16:45:31.000+01:00,{}
cd7cb16b-bfa4-4993-831e-89512f5787d7,0.7714285714285715,cd7cb16b-bfa4-4993-831e-89512f5787d7,Aral Tankstelle,ARAL,Möllner Straße,85,21493,Schwarzenbek,53.51153,10.489115,2014-03-18T16:45:31.000+01:00,{}
36bd05a0-da95-42ec-afd4-0e3bf7165682,0.7297297297297297,36bd05a0-da95-42ec-afd4-0e3bf7165682,MHT Tankstelle Sürth,MHT,Koblenzer Straße,168,56727,Mayen,50.3269,7.247,2017-08-13T23:30:07.000+02:00,{}
bc9046f3-329e-4a55-9c4d-47cc114b2d00,0.9166666666666666,bc9046f3-329e-4a55-9c4d-47cc114b2d00,Shell Neunkirchen Koelner Str. 68,Shell,Koelner Str.,68,57290,Neunkirchen,50.784808,7.986355,2014-03-18T16:45:31.000+01:00,"\"{\"\"openingTimes\"\":[{\"\"applicable_days\"\":192"
04d24573-941d-461b-9db3-bbadcfa66666,0.85,04d24573-941d-461b-9db3-bbadcfa66666,Shell Wietzendorf Am Hanfberg 3,Shell,Am Hanfberg,3,29649,Wietzendorf,52.945191,9.881364,2014-03-18T16:45:31.000+01:00,{}
5b71a311-8f1b-4b56-8783-498eac64941d,0.88,5b71a311-8f1b-4b56-8783-498eac64941d,Gremberghoven,Ektra,Neuenhofstr.,2,51149,Köln,50.91112,7.052908,2014-03-18T16:45:31.000+01:00,{}
e1a15081-25a2-9107-e040-0b0a3dfe563c,0.6764705882352942,e1a15081-25a2-9107-e040-0b0a3dfe563c,"Berlin, Kaulsdorfer Str. 124-126",HEM,Kaulsdorfer Str. -,124126,12555,Berlin,52.471978,13.57143,2014-03-18T16:45:31.000+01:00,"\"{\"\"openingTimes\"\":[{\"\"applicable_days\"\":127"
e1a15081-25eb-9107-e040-0b0a3dfe563c,0.7619047619047619,e1a15081-25eb-9107-e040-0b0a3dfe563c,"Schladen, Im Gewerbegebiet 2",HEM,Im Gewerbegebiet,2,38315,Schladen,52.02925,10.53539444,2014-03-18T16:45:31.000+01:00,"\"{\"\"openingTimes\"\":[{\"\"applicable_days\"\":31"
07582765-3050-49ff-af3e-6d353d912ac6,0.65,07582765-3050-49ff-af3e-6d353d912ac6,"Möttingen, Romantische Str. 14",HEM,Romantische Str.,14,86753,Möttingen,48.810785,10.586646,2015-07-25T00:00:01.000+02:00,"\"{\"\"openingTimes\"\":[{\"\"applicable_days\"\":31"
1674639b-579b-49ea-8e6b-7ad8d75c38e0,0.6829268292682927,1674639b-579b-49ea-8e6b-7ad8d75c38e0,bft- Tankstelle Silotech Anlagenbau GmbH,BFT,Burgstaedter Str.,97c,09236,Claussnitz,50.9431,12.89472,2014-03-18T16:45:31.000+01:00,{}
005056ba-7cb6-1ed2-bceb-5d7cfdd88d1b,0.7027027027027027,005056ba-7cb6-1ed2-bceb-5d7cfdd88d1b,star Tankstelle,STAR,Ribnitzer Straße,46,18181,Graal-Müritz,54.257783,12.261082,2014-03-18T16:45:31.000+01:00,"\"{\"\"openingTimes\"\":[{\"\"applicable_days\"\":31"
be303014-72a6-4ad6-b9b0-402beffff377,1.0,be303014-72a6-4ad6-b9b0-402beffff377,Raiffeisen Energie Nord GmbH,Raiffeisen,Industriestraße,11,23879,Mölln,53.6108,10.6401,2022-03-03T20:01:16.000+01:00,{}
2e4b186d-e982-4a98-ad4f-ae471e5a2644,0.66,2e4b186d-e982-4a98-ad4f-ae471e5a2644,Bft Bitterfeld Bismarckstraße 45,bft,Bismarckstraße,45,06749,Bitterfeld,51.619632,12.319607,2014-03-18T16:45:31.000+01:00,"\"{\"\"openingTimes\"\":[{\"\"applicable_days\"\":224"
9cc8367d-4379-48ff-8a33-c2f1f37254bc,1.0,9cc8367d-4379-48ff-8a33-c2f1f37254bc,WT-Rhede Brual,Wiro,Dorfstraße,44,26899,Rhede-Brual,53.101089,7.280491,2014-03-18T16:45:31.000+01:00,{}
bd43136d-5114-4a92-a2b1-ca60f1ea9b62,0.7916666666666666,bd43136d-5114-4a92-a2b1-ca60f1ea9b62,TopTank Tankstelle,TopTank,FORSTHAUSSTR. 1,"",01877,BISCHOFSWERDA,51.136332,14.192402,2014-03-18T16:45:31.000+01:00,"\"{\"\"openingTimes\"\":[{\"\"applicable_days\"\":31"
5e3c22de-18c6-4715-aa36-bc61244fd431,0.8043478260869565,5e3c22de-18c6-4715-aa36-bc61244fd431,Esso Tankstelle,ESSO,ARNHEIMER STR. 22,"",40489,DUESSELDORF,51.303623,6.740373,2014-03-18T16:45:31.000+01:00,"\"{\"\"openingTimes\"\":[{\"\"applicable_days\"\":63"
d58e385b-9c5b-43d5-bd17-e725b7f832ed,0.7843137254901961,d58e385b-9c5b-43d5-bd17-e725b7f832ed,Esso Tankstelle,ESSO,HAMMER STR. 18,"",59269,BECKUM,51.753556,8.03088,2014-03-18T16:45:31.000+01:00,{}
f5ebb023-35b8-44af-9cc9-bcd00e49578d,0.7567567567567568,f5ebb023-35b8-44af-9cc9-bcd00e49578d,Esso Tankstelle,ESSO,DAHLENER STR. 201 L,"",41239,MOENCHENGLADBACH,51.165943,6.429352,2014-03-18T16:45:31.000+01:00,"\"{\"\"openingTimes\"\":[{\"\"applicable_days\"\":31"
9ffbb2c6-3f1b-496c-9a43-e1189f8b84ba,0.8285714285714286,9ffbb2c6-3f1b-496c-9a43-e1189f8b84ba,Esso Tankstelle,ESSO,MUEHLENRING 1,"",19243,WITTENBURG,53.501698,11.089259,2014-03-18T16:45:31.000+01:00,"\"{\"\"openingTimes\"\":[{\"\"applicable_days\"\":31"
3f133314-f427-4d2b-9b5e-503da268cc59,0.7619047619047619,3f133314-f427-4d2b-9b5e-503da268cc59,Esso Tankstelle,ESSO,SEHNINGER STR,"",73087,BAD BOLL,48.64512,9.609966,2014-03-18T16:45:31.000+01:00,"\"{\"\"openingTimes\"\":[{\"\"applicable_days\"\":31"
028ee0be-15a3-4acb-b641-b3fb54ace05a,0.6530612244897959,028ee0be-15a3-4acb-b641-b3fb54ace05a,Agip Tankstelle,Agip,Badelacher Weg,10,36404,Vacha,50.8289,10.0312,2014-03-18T16:45:31.000+01:00,"\"{\"\"openingTimes\"\":[{\"\"applicable_days\"\":192"
5eed0680-cb8c-481f-c723-fda21c723836,0.7307692307692307,5eed0680-cb8c-481f-c723-fda21c723836,TAS Wunstorf,TAS,Kolenfelder Straße,67,31515,Wunstorf,52.416906,9.447229,2014-10-04T00:00:01.000+02:00,"\"{\"\"overrides\"\":[{\"\"startp\"\":\"\"2024-12-31 05:00\"\""
b2f4cb70-15ef-48ff-bbc9-b07ead9e5457,0.725,b2f4cb70-15ef-48ff-bbc9-b07ead9e5457,Joiss,Joiss,Bodenburger Straße,55,31162,Bad Salzdetfurth,52.054295,10.002797,2014-03-18T16:45:31.000+01:00,"\"{\"\"openingTimes\"\":[{\"\"applicable_days\"\":64"
005056ba-7cb6-1ed2-bceb-c8b8d8874d54,0.7666666666666667,005056ba-7cb6-1ed2-bceb-c8b8d8874d54,star Tankstelle,STAR,Bielefelder Straße,90a,57368,Lennestadt-Elspe,51.153176,8.049487,2014-03-18T16:45:31.000+01:00,"\"{\"\"overrides\"\":[{\"\"startp\"\":\"\"2024-12-31 06:00\"\""
005056ba-7cb6-1ed2-bceb-508665b80d12,0.9285714285714286,005056ba-7cb6-1ed2-bceb-508665b80d12,star Tankstelle,STAR,Bockumer Weg,137,59065,Hamm,51.688483,7.794322,2014-03-18T16:45:31.000+01:00,"\"{\"\"openingTimes\"\":[{\"\"applicable_days\"\":31"
51df69e4-03e1-0f50-e100-80009459e038,0.8518518518518519,51df69e4-03e1-0f50-e100-80009459e038,JET FORCHHEIM BAMBERGER STR. 81,JET,BAMBERGER STR.,81,91301,FORCHHEIM,49.72915,11.05764,2014-03-18T16:45:31.000+01:00,"\"{\"\"openingTimes\"\":[{\"\"applicable_days\"\":63"
51d4b71c-a095-1aa0-e100-80009459e03a,0.8076923076923077,51d4b71c-a095-1aa0-e100-80009459e03a,JET LUENEN VIKTORIASTRASSE 47-51,JET,VIKTORIASTRASSE,47-51,44532,LUENEN,51.6094,7.51225,2014-03-18T16:45:31.000+01:00,"\"{\"\"openingTimes\"\":[{\"\"applicable_days\"\":31"
c219fa8d-145b-4ebd-978a-603fa6cd355e,0.6538461538461539,c219fa8d-145b-4ebd-978a-603fa6cd355e,AVIA Kirchheim,AVIA,Jesinger Str.,50,73230,Kirchheim,48.6453,9.4593,2022-07-25T10:01:19.000+02:00,"\"{\"\"openingTimes\"\":[{\"\"applicable_days\"\":64"
fbc4af15-1e1d-46ba-9a44-80c47900f3a5,0.8846153846153846,fbc4af15-1e1d-46ba-9a44-80c47900f3a5,TotalEnergies Pforzheim,TotalEnergies,Breslauer Str.,1,75181,Pforzheim,48.884801,8.72729,2014-03-18T16:45:31.000+01:00,"\"{\"\"openingTimes\"\":[{\"\"applicable_days\"\":31"
6ccddd68-3f3c-40ce-bb5e-f279efde1dc7,0.65,6ccddd68-3f3c-40ce-bb5e-f279efde1dc7,ENI,AGIP ENI,Mannheimer Strasse,1A,76676,Graben-Neudorf,49.169178576032,8.49272693019,2014-03-20T00:00:01.000+01:00,"\"{\"\"openingTimes\"\":[{\"\"applicable_days\"\":63"
cd84c6d5-9c15-4ab8-8214-e8305df5ab6d,0.7142857142857143,cd84c6d5-9c15-4ab8-8214-e8305df5ab6d,TotalEnergies Essen,TotalEnergies,Frankenstr.,241,45134,Essen,51.422046,7.028408,2014-12-31T00:00:01.000+01:00,"\"{\"\"openingTimes\"\":[{\"\"applicable_days\"\":31"
d9d63b96-111f-4218-998a-aa318caa100d,0.9473684210526315,d9d63b96-111f-4218-998a-aa318caa100d,TotalEnergies Weilmuenster,TotalEnergies,Weilstr.,112,35789,Weilmuenster,50.4341,8.374491,2017-02-07T00:00:26.000+01:00,"\"{\"\"openingTimes\"\":[{\"\"applicable_days\"\":31"
89a464bc-b992-4eb5-8888-aa6a4cf51d98,0.6428571428571429,89a464bc-b992-4eb5-8888-aa6a4cf51d98,STEGAURACH - BAMBERGER STRASSE 39,AGIP ENI,Bamberger Strasse,39,96135,Stegaurach,49.862959380137,10.846465142607,2014-03-20T00:00:01.000+01:00,"\"{\"\"openingTimes\"\":[{\"\"applicable_days\"\":31"
4a682858-4656-4580-9b31-e6e8fafb5f10,1.0,4a682858-4656-4580-9b31-e6e8fafb5f10,Raiffeisen-Warengenossenschaft Groß Lessen-Diepholz eG,Raiffeisen Groß Lessen-Diepholz,In den Hügeln,12,49419,Wagenfeld,52.53453,8.55331,2014-03-18T16:45:31.000+01:00,{}
b009c28a-6be3-49a5-8012-3db50637a5a1,0.7142857142857143,b009c28a-6be3-49a5-8012-3db50637a5a1,Shell Dillenburg Frankfurter Str. 175,Shell,Frankfurter Str.,175,35683,Dillenburg,50.73528,8.290547,2014-03-18T16:45:31.000+01:00,{}
2d94798f-9def-4cce-af5d-5c4c55d4fb83,0.782608695652174,2d94798f-9def-4cce-af5d-5c4c55d4fb83,Shell Giessen Marburger Str. 340,Shell,Marburger Str.,340,35396,Giessen,50.613663,8.703535,2014-03-18T16:45:31.000+01:00,"\"{\"\"overrides\"\":[{\"\"startp\"\":\"\"2024-12-31 00:00\"\""
8cb10280-94e8-4534-a181-6dc53d3f7033,0.8125,8cb10280-94e8-4534-a181-6dc53d3f7033,Aral Tankstelle,ARAL,Wasserbreite,105,32257,Bünde,52.203857,8.5887,2014-03-18T16:45:31.000+01:00,"\"{\"\"openingTimes\"\":[{\"\"applicable_days\"\":64"
f20c2b35-c282-4870-98f4-3c8b46b6297d,0.75,f20c2b35-c282-4870-98f4-3c8b46b6297d,Aral Tankstelle,ARAL,Adlerstraße,29,77948,Friesenheim,48.370686,7.872607,2014-03-18T16:45:31.000+01:00,"\"{\"\"openingTimes\"\":[{\"\"applicable_days\"\":64"
7c6a13f6-12a8-4619-a7ab-2c3c9dbab28b,0.8181818181818182,7c6a13f6-12a8-4619-a7ab-2c3c9dbab28b,Aral Tankstelle,ARAL,Berliner Straße,24,13507,Berlin,52.584373,13.287744,2014-03-18T16:45:31.000+01:00,{}
2738df4a-0b19-423b-81b1-3912d53b69fb,0.6666666666666666,2738df4a-0b19-423b-81b1-3912d53b69fb,Aral Tankstelle,ARAL,Grossbeerenstraße,121,14482,Potsdam,52.386086,13.106655,2014-03-18T16:45:31.000+01:00,{}
62a2fdf4-602e-4e49-b398-c7242da31987,0.7241379310344828,62a2fdf4-602e-4e49-b398-c7242da31987,Aral Tankstelle,ARAL,Maarweg,126,50825,Köln,50.94309,6.898796,2014-03-18T16:45:31.000+01:00,"\"{\"\"openingTimes\"\":[{\"\"applicable_days\"\":64"
34b3142f-6c8e-4b8b-8127-d48138bc47a7,0.8518518518518519,34b3142f-6c8e-4b8b-8127-d48138bc47a7,Aral Tankstelle,ARAL,Gleiwitzer Straße,8,93073,Neutraubling,48.988228,12.189362,2014-03-18T16:45:31.000+01:00,{}
c483b0fc-7668-4135-bd88-5ddd9893716e,1.0,c483b0fc-7668-4135-bd88-5ddd9893716e,Aral Tankstelle,ARAL,Schongauer Straße,19,86971,Peiting,47.798668,10.921203,2014-03-18T16:45:31.000+01:00,"\"{\"\"openingTimes\"\":[{\"\"applicable_days\"\":64"
c2ccf4b3-a6cf-4eeb-9e9f-98e8a0db1f3c,1.0,c2ccf4b3-a6cf-4eeb-9e9f-98e8a0db1f3c,Schmickler GmbH,ED,Bahnstraße,84,56743,Mendig,50.369034,7.2882,2014-03-18T16:45:31.000+01:00,"\"{\"\"overrides\"\":[{\"\"startp\"\":\"\"2024-12-31 06:30\"\""
4948f4a2-1e01-48bd-83ec-cb88ba9b03f9,0.8333333333333334,4948f4a2-1e01-48bd-83ec-cb88ba9b03f9,Esso Tankstelle,ESSO,KOELNSTR. 455,"",53117,BONN,50.75213,7.073853,2014-03-18T16:45:31.000+01:00,"\"{\"\"openingTimes\"\":[{\"\"applicable_days\"\":63"
b95b00b7-9d83-4df3-a953-abd49dbbc83e,0.7931034482758621,b95b00b7-9d83-4df3-a953-abd49dbbc83e,tankpoint Tankstelle,tankpoint,Hohenstadter Straße,1,73453,Abtsgmünd,48.894632436113,10.000474044614,2014-03-18T16:45:31.000+01:00,{}
4b20585e-3452-479f-8aed-a940b013364e,1.0,4b20585e-3452-479f-8aed-a940b013364e,BayWa Tankstelle Trostberg,BayWa,Soeldenhofstr.,2a,83308,Trostberg,48.0384684,12.5710907,2014-03-18T16:45:31.000+01:00,{}
96f406b0-54ea-4663-93b6-a7ff0059da56,0.9166666666666666,96f406b0-54ea-4663-93b6-a7ff0059da56,Autohaus Hch. Gramling GmbH & Co.KG,,Mosbacher Str.,68,74821,Mosbach-Neckarelz,49.34018,9.11857,2014-03-18T16:45:31.000+01:00,"\"{\"\"openingTimes\"\":[{\"\"applicable_days\"\":31"
bc7fb94f-82f2-4d9b-a7dc-fe9f8ebca192,0.9,bc7fb94f-82f2-4d9b-a7dc-fe9f8ebca192,TotalEnergies Oschersleben,TotalEnergies,Anderlebener Str.,53,39387,Oschersleben,52.028477,11.246092,2014-03-18T16:45:31.000+01:00,"\"{\"\"openingTimes\"\":[{\"\"applicable_days\"\":31"
c3d17257-bf1e-45e4-b44d-f405a6c3863c,0.7419354838709677,c3d17257-bf1e-45e4-b44d-f405a6c3863c,TotalEnergies Wolmirstedt,TotalEnergies,Colbitzer Str.,1,39326,Wolmirstedt,52.257223,11.628863,2014-03-18T16:45:31.000+01:00,"\"{\"\"openingTimes\"\":[{\"\"applicable_days\"\":63"
c78b462f-4927-459d-fe27-de951ab723d0,0.7878787878787878,c78b462f-4927-459d-fe27-de951ab723d0,Tankcenter Harpstedt,Jantzon Tankstelle,Burgstraße,36,27243,Harpstedt,52.906417,8.579507,2014-03-18T16:45:31.000+01:00,"\"{\"\"overrides\"\":[{\"\"startp\"\":\"\"2024-12-31 06:00\"\""
bdbf32b7-1c79-44f4-ba97-925800674126,1.0,bdbf32b7-1c79-44f4-ba97-925800674126,Raiffeisen Waldeck-Marsberg GmbH,Raiffeisen,Allee,7,35104,Lichtenfels-Goddelsheim,51.20179,8.809437,2014-03-18T16:45:31.000+01:00,{}
51d4b71f-a095-1aa0-e100-80009459e03a,0.8,51d4b71f-a095-1aa0-e100-80009459e03a,JET MUEHLTAL ODENWALDSTRASSE 19,JET,ODENWALDSTRASSE,19,64367,MUEHLTAL,49.83076,8.70491,2014-03-18T16:45:31.000+01:00,"\"{\"\"openingTimes\"\":[{\"\"applicable_days\"\":31"
9b691005-7ff1-46f1-ae3a-09d713c6ad37,0.7857142857142857,9b691005-7ff1-46f1-ae3a-09d713c6ad37,TS Papenburg,EC - Tankstelle Rolfes,Bethlehem rechts,27,26871,Papenburg,53.06639,7.43773,2015-03-26T00:00:01.000+01:00,{}
87e6a275-d9fd-4ec7-9179-2d5e490b4b88,0.6470588235294118,87e6a275-d9fd-4ec7-9179-2d5e490b4b88,Orcun Diril,Westfalen,Eckeseyerstr./Becheltestr.,0,58089,Hagen,51.37771,7.45242,2014-03-18T16:45:31.000+01:00,"\"{\"\"openingTimes\"\":[{\"\"applicable_days\"\":64"
00061393-0001-4444-8888-acdc00000001,0.8823529411764706,00061393-0001-4444-8888-acdc00000001,Habitzki,,Heinrich-Lübke-Str.,50,59909,Bestwig-Ramsbeck,51.305992126465,8.4038791656494,2014-03-18T16:45:31.000+01:00,{}
64e9a45c-bf18-4f35-9b30-5847cb98d1db,0.84,64e9a45c-bf18-4f35-9b30-5847cb98d1db,team Tankstelle Tarp,team,Stapelholmer Weg,32,24963,Tarp,54.6606,9.39657,2014-03-18T16:45:31.000+01:00,{}
d49f1a96-c822-4a62-87cd-3f3434458e8e,0.8181818181818182,d49f1a96-c822-4a62-87cd-3f3434458e8e,OIL! Tankstelle Essen,OIL!,Frohnhauser Straße 215,,45144,Essen,51.4496,6.97792,2014-03-18T16:45:31.000+01:00,"\"{\"\"openingTimes\"\":[{\"\"applicable_days\"\":192"
3947fb50-9d25-49ed-9901-0318e63e9942,0.8888888888888888,3947fb50-9d25-49ed-9901-0318e63e9942,Shell Nordhausen Kasseler Landstr. 6,Shell,Kasseler Landstr.,6,99734,Nordhausen,51.491702,10.765577,2014-03-18T16:45:31.000+01:00,{}
ab76f1d7-f02c-4c6f-abf1-497047b41996,0.7692307692307693,ab76f1d7-f02c-4c6f-abf1-497047b41996,Automatentankstelle,Markant (Tankautomat),Olpener Str.,27,51103,Köln,50.94039,7.01888,2014-03-18T16:45:31.000+01:00,"\"{\"\"openingTimes\"\":[{\"\"applicable_days\"\":127"
50b797b5-77d3-4fba-9fa7-ee3670ac37c6,0.8292682926829268,50b797b5-77d3-4fba-9fa7-ee3670ac37c6,Shell Juelich Neusser Str. 74,Shell,Neusser Str.,74,52428,Juelich,50.928244,6.366592,2014-03-18T16:45:31.000+01:00,"\"{\"\"openingTimes\"\":[{\"\"applicable_days\"\":192"
70302cbe-75e0-43a3-9f05-58d0940720ea,0.8709677419354839,70302cbe-75e0-43a3-9f05-58d0940720ea,Shell Woerth Luitpoldpark 2,Shell,Luitpoldpark,2,84109,Woerth,48.62599,12.319968,2017-10-17T19:01:15.000+02:00,{}
1ca3b827-3d5c-4037-b3ff-d5f6a0e72bb0,0.8333333333333334,1ca3b827-3d5c-4037-b3ff-d5f6a0e72bb0,Shell Berlin Scharnweberstr. 79/81,Shell,Scharnweberstr.,79/81,13405,Berlin,52.567767,13.309796,2014-03-18T16:45:31.000+01:00,"\"{\"\"openingTimes\"\":[{\"\"applicable_days\"\":255"
7d2ad66f-f9cd-405a-b12f-38d4ecc7d659,0.95,7d2ad66f-f9cd-405a-b12f-38d4ecc7d659,Shell Bodenmais Regener Str. 10a,Shell,Regener Str.,10a,94249,Bodenmais,49.06344,13.104284,2014-03-18T16:45:31.000+01:00,"\"{\"\"overrides\"\":[{\"\"startp\"\":\"\"2025-01-01 08:00\"\""
3f0b4a04-a6b7-4b53-871c-87e62dac760f,0.6976744186046512,3f0b4a04-a6b7-4b53-871c-87e62dac760f,Shell Krefeld Lange Str. 105,Shell,Lange Str.,105,47829,Krefeld,51.352148,6.638965,2014-03-18T16:45:31.000+01:00,"\"{\"\"openingTimes\"\":[{\"\"applicable_days\"\":255"
a674473d-bdc4-4e05-9677-e4dd74ed0184,0.8787878787878788,a674473d-bdc4-4e05-9677-e4dd74ed0184,Aral Tankstelle,ARAL,Untermühlaustraße,50,68169,Mannheim,49.50618,8.463967,2014-03-18T16:45:31.000+01:00,{}
d6e30bca-f474-4e02-aef2-56bd5c2545d9,0.868421052631579,d6e30bca-f474-4e02-aef2-56bd5c2545d9,Aral Tankstelle,ARAL,Kaiser-Friedrich-Straße,3,75172,Pforzheim,48.88908,8.692441,2014-03-18T16:45:31.000+01:00,{}
8d253362-4f6e-4851-be38-8c9551493d3d,0.8235294117647058,8d253362-4f6e-4851-be38-8c9551493d3d,Aral Tankstelle,ARAL,Grünwalder Straße,175 C,81545,München,48.096382,11.564114,2014-03-18T16:45:31.000+01:00,{}
ac73e9a4-99f5-4ad5-ac3f-726d377ca0b2,1.0,ac73e9a4-99f5-4ad5-ac3f-726d377ca0b2,Aral Tankstelle,ARAL,Merziger Straße,106,66763,Dillingen,49.35669,6.720603,2014-03-18T16:45:31.000+01:00,{}
2883825f-bbcb-489a-bbb2-045d2600cd2c,0.896551724137931,2883825f-bbcb-489a-bbb2-045d2600cd2c,Aral Tankstelle,ARAL,Husumer Straße,30,24941,Flensburg,54.775036,9.426041,2014-03-18T16:45:31.000+01:00,{}
2af748f1-b663-44a2-a62c-72a96408d658,0.7567567567567568,2af748f1-b663-44a2-a62c-72a96408d658,Bernd Sulzbacher,Westfalen,Kirchsiek,11,32457,Porta Westfalica,52.23947,8.92517,2014-03-18T16:45:31.000+01:00,"\"{\"\"openingTimes\"\":[{\"\"applicable_days\"\":31"
253a58cb-bcd3-4bfc-bf63-527e22429aa4,0.6585365853658537,253a58cb-bcd3-4bfc-bf63-527e22429aa4,Shell Bad Lippspringe Detmolder Str. 73,Shell,Detmolder Str.,73,33175,Bad Lippspringe,51.777114,8.807257,2014-03-18T16:45:31.000+01:00,"\"{\"\"openingTimes\"\":[{\"\"applicable_days\"\":224"
b2b24128-1c6e-4b07-ae69-4ed94f12e635,0.7954545454545454,b2b24128-1c6e-4b07-ae69-4ed94f12e635,Shell Darmstadt Ruedesheimer Str. 121-123,Shell,Ruedesheimer Str.,121-123,64295,Darmstadt,49.853178,8.64448,2014-03-18T16:45:31.000+01:00,{}
8917c28b-b08d-4b97-8219-43ecb69079bb,0.8888888888888888,8917c28b-b08d-4b97-8219-43ecb69079bb,Shell Duesseldorf Kieshecker Weg 256,Shell,Kieshecker Weg,256,40468,Duesseldorf,51.2804,6.772591,2014-03-18T16:45:31.000+01:00,{}
20ecd982-d655-4d38-b267-b4b4efb3d6e6,0.7,20ecd982-d655-4d38-b267-b4b4efb3d6e6,T Arnstadt,T,Ichtershaeuser Str.,9,99310,Arnstadt,50.841463,10.950925,2014-03-18T16:45:31.000+01:00,"\"{\"\"openingTimes\"\":[{\"\"applicable_days\"\":31"
a927a411-4d15-4ea6-ab8d-740cb65fd48b,0.96875,a927a411-4d15-4ea6-ab8d-740cb65fd48b,TotalEnergies Sassnitz,TotalEnergies,Gewerbepark,3,18546,Sassnitz,54.513303,13.603129,2014-03-18T16:45:31.000+01:00,"\"{\"\"openingTimes\"\":[{\"\"applicable_days\"\":127"
ab9d0fe4-64e8-4a61-808f-c2e4ac84c270,0.7083333333333334,ab9d0fe4-64e8-4a61-808f-c2e4ac84c270,TotalEnergies Ilmenau,TotalEnergies,Erfurter Str.,60,98693,Ilmenau,50.691333,10.904988,2014-03-18T16:45:31.000+01:00,"\"{\"\"openingTimes\"\":[{\"\"applicable_days\"\":31"
a4854c38-bb02-4010-8fc2-01959cdb8a10,0.8,a4854c38-bb02-4010-8fc2-01959cdb8a10,Raiffeisen Hatten eG,Raiffeisen Hatten eG,Wildeshauser Landstraße,60,27777,Ganderkesee,53.01844,8.5699,2017-06-15T23:30:06.000+02:00,{}
e1a15081-2512-9107-e040-0b0a3dfe563c,0.7878787878787878,e1a15081-2512-9107-e040-0b0a3dfe563c,"Lychen, Fontanestr. 7",HEM,Fontanestr.,7,17279,Lychen,53.212268,13.288318,2014-03-18T16:45:31.000+01:00,"\"{\"\"openingTimes\"\":[{\"\"applicable_days\"\":127"
44aa3b08-9bbb-4d33-9c8f-2500ef62f6c8,0.9047619047619048,44aa3b08-9bbb-4d33-9c8f-2500ef62f6c8,Globus Handelshof GmbH & Co. KG Betriebsstätte Zwickau,Globus SB Warenhaus,Äußere Schneeberger Str.,100,08056,Zwickau,50.7055149,12.49897,2014-03-18T16:45:31.000+01:00,{}
cd8ba6a6-7f37-1ed4-9fe4-b37155d7cc7b,0.84375,cd8ba6a6-7f37-1ed4-9fe4-b37155d7cc7b,JET PFORZEN AM MOOSBERG 1,JET,AM MOOSBERG,1,87666,PFORZEN,47.93336,10.60749,2014-12-11T00:00:01.000+01:00,"\"{\"\"openingTimes\"\":[{\"\"applicable_days\"\":31"
51d4b420-a095-1aa0-e100-80009459e03a,0.8387096774193549,51d4b420-a095-1aa0-e100-80009459e03a,JET LEINFELDEN-ECHTERDINGEN HAUPTSTR. 135,JET,HAUPTSTR.,135,70771,LEINFELDEN-ECHTERDINGEN,48.69365,9.16715,2014-03-18T16:45:31.000+01:00,"\"{\"\"openingTimes\"\":[{\"\"applicable_days\"\":31"
a6f45683-8c10-445e-8e88-0d9f965dfde4,0.7142857142857143,a6f45683-8c10-445e-8e88-0d9f965dfde4,Tankstelle,Freie Tankstelle,Weseler Str.,98,46519,Alpen,51.582943451549,6.5226338260944,2019-06-19T23:30:07.000+02:00,{}
005056ba-7cb6-1ed2-bceb-a33fcd74cd3e,0.6382978723404256,005056ba-7cb6-1ed2-bceb-a33fcd74cd3e,ORLEN Tankstelle,ORLEN,Hinrichsdorfer Straße,7e,18146,Rostock,54.1104,12.165367,2014-03-18T16:45:31.000+01:00,"\"{\"\"overrides\"\":[{\"\"startp\"\":\"\"2024-12-31 06:00\"\""
