station_uuid,durchschnitt_aenderung,uuid,name,brand,street,house_number,post_code,city,latitude,longitude,first_active,openingtimes_json
fdf982fe-0b1a-4b86-9f0d-836217d446af,0.6363636363636364,fdf982fe-0b1a-4b86-9f0d-836217d446af,team Tankstelle Schortens,team,Bohlswarfer Weg,2,26419,Schortens,53.5393,7.9679,2019-05-03T23:30:07.000+02:00,{}
2a5e0e60-e57b-415e-906b-7bbe1fae859b,0.5555555555555556,2a5e0e60-e57b-415e-906b-7bbe1fae859b,Thomas Vogeler,Westfalen,Wittener Str.,19,58285,Gevelsberg,51.32162,7.33795,2014-03-18T16:45:31.000+01:00,"\"{\"\"openingTimes\"\":[{\"\"applicable_days\"\":64"
28008ffd-4ab5-45a0-9816-655f78b357cc,0.8461538461538461,28008ffd-4ab5-45a0-9816-655f78b357cc,ENI,AGIP ENI,Pütrichstrasse,29,82362,Weilheim,47.84385,11.14761,2014-03-20T00:00:01.000+01:00,"\"{\"\"openingTimes\"\":[{\"\"applicable_days\"\":63"
f895455e-33d4-f76f-e100-00000630df04,0.6470588235294118,f895455e-33d4-f76f-e100-00000630df04,ENI,AGIP ENI,Regensburger Str.,16,93087,Alteglofsheim,48.926336,12.207379,2020-09-24T16:01:16.000+02:00,"\"{\"\"openingTimes\"\":[{\"\"applicable_days\"\":255"
93489447-3db9-41fa-94a6-43abcae6bc33,0.7105263157894737,93489447-3db9-41fa-94a6-43abcae6bc33,TotalEnergies Grevesmuehlen,TotalEnergies,Wismarsche Str.,153A,23936,Grevesmuehlen,53.865385,11.2095,2014-03-18T16:45:31.000+01:00,{}
dbb0a607-7b91-42bf-af87-0c06c45991ed,0.8846153846153846,dbb0a607-7b91-42bf-af87-0c06c45991ed,TotalEnergies Kaiserslautern,TotalEnergies,Mainzer Str.,140,67657,Kaiserslautern,49.457298,7.801527,2014-03-18T16:45:31.000+01:00,{}
376b3383-6ffa-4420-aa7c-5f3994033fed,1.0,376b3383-6ffa-4420-aa7c-5f3994033fed,AVIA Tankstelle,AVIA,Höwwel,3,46414,Rhede,51.82724,6.717233,2019-07-03T23:30:07.000+02:00,{}
e9431308-8ea4-4575-9fd0-8f9a4dcfeb0f,0.8571428571428571,e9431308-8ea4-4575-9fd0-8f9a4dcfeb0f,ENI,AGIP ENI,Coburger Str.,503,98673,Eisfeld,50.394442205018,10.921502163022,2014-03-20T00:00:01.000+01:00,{}
005056ba-7cb6-1ed2-bceb-7c4d1b36ed27,0.7948717948717948,005056ba-7cb6-1ed2-bceb-7c4d1b36ed27,star Tankstelle,STAR,Bahnhofstraße,68,37441,Bad Sachsa,51.592741,10.564006,2014-03-18T16:45:31.000+01:00,"\"{\"\"overrides\"\":[{\"\"startp\"\":\"\"2024-12-31 09:00\"\""
7aac5ce2-e2e0-4f6b-a353-f953966bf1d0,0.95,7aac5ce2-e2e0-4f6b-a353-f953966bf1d0,Aral Tankstelle,ARAL,Kufsteiner Straße,57,83022,Rosenheim,47.848766,12.127539,2014-03-18T16:45:31.000+01:00,{}
c43b532d-a25d-4c82-8d57-a5abe20bbeeb,0.6285714285714286,c43b532d-a25d-4c82-8d57-a5abe20bbeeb,Aral Tankstelle,ARAL,Besanconallee,30,79111,Freiburg,47.99066,7.797461,2014-03-18T16:45:31.000+01:00,{}
7ea27e0c-e703-4f6a-8f49-a11f86043ba8,0.96,7ea27e0c-e703-4f6a-8f49-a11f86043ba8,Aral Tankstelle,ARAL,Harburger Straße,74,29223,Celle,52.63418,10.080998,2014-03-18T16:45:31.000+01:00,{}
73141fb6-8338-438d-ac7e-06f4200f7326,0.7954545454545454,73141fb6-8338-438d-ac7e-06f4200f7326,Weidemann-Tank,Weidemann-Tank,Linden Str.,31,23684,Pönitz,54.0447,10.672,2024-03-22T23:49:36.000+01:00,{}
1b599ba4-a1b5-4689-b98f-24b11b681e55,0.5555555555555556,1b599ba4-a1b5-4689-b98f-24b11b681e55,Union Zapfstelle Berlin,Union Zapfstelle,Michael-Brückner-Str.,26-31,12439,Berlin,52.453798,13.513042,2014-03-18T16:45:31.000+01:00,"\"{\"\"openingTimes\"\":[{\"\"applicable_days\"\":31"
c2f4b742-cfb0-4dc9-b3e6-54ef9f5aa1c8,0.6923076923076923,c2f4b742-cfb0-4dc9-b3e6-54ef9f5aa1c8,Tankcenter Pinneberg,Tankcenter,Thesdorfer Str.,194,25421,Pinneberg,53.644607,9.805765,2014-03-18T16:45:31.000+01:00,"\"{\"\"openingTimes\"\":[{\"\"applicable_days\"\":31"
dc92d9f0-0fd7-4640-a5e7-1042be447104,0.8823529411764706,dc92d9f0-0fd7-4640-a5e7-1042be447104,"HANAU, BRUCHKÖBELER LANDSTRASSE",AGIP ENI,Bruchkoebeler Landstrasse,53,63452,Hanau,50.1458853,8.9091131,2014-03-20T00:00:01.000+01:00,"\"{\"\"openingTimes\"\":[{\"\"applicable_days\"\":63"
e1a15081-253f-9107-e040-0b0a3dfe563c,0.49122807017543857,e1a15081-253f-9107-e040-0b0a3dfe563c,"Velten, Ahornstr. 1",HEM,Ahornstr.,1,16727,Velten,52.68665,13.193324,2014-03-18T16:45:31.000+01:00,"\"{\"\"openingTimes\"\":[{\"\"applicable_days\"\":127"
e7033959-7da5-40c4-9ad3-590460254b80,0.7777777777777778,e7033959-7da5-40c4-9ad3-590460254b80,AVIA Tankstelle,AVIA,Ellwanger Strasse,7,74424,Bühlertann,49.04053,9.912663,2014-03-18T16:45:31.000+01:00,{}
55d81407-6ae3-4fe6-abf0-81ce937f3594,0.9166666666666666,55d81407-6ae3-4fe6-abf0-81ce937f3594,Winkler-St.Ingbert,Winkler 24h,Obere Kaiserstraße,279,66386,Sankt Ingbert,49.278808,7.174321,2019-09-21T02:01:21.000+02:00,{}
533a7953-42ff-06d0-e100-80009459e039,0.7647058823529411,533a7953-42ff-06d0-e100-80009459e039,JET FULDA MABERZELLER STRASSE 121,JET,MABERZELLER STRASSE,121,36041,FULDA,50.56182,9.64435,2014-04-04T00:00:01.000+02:00,"\"{\"\"openingTimes\"\":[{\"\"applicable_days\"\":31"
005056ba-7cb6-1ed2-bceb-951d6099cd38,0.8484848484848485,005056ba-7cb6-1ed2-bceb-951d6099cd38,star Tankstelle,STAR,Hildesheimer Straße,21,31061,Alfeld,51.990404,9.832149,2014-03-18T16:45:31.000+01:00,"\"{\"\"overrides\"\":[{\"\"startp\"\":\"\"2024-12-31 06:00\"\""
00061805-0008-4444-8888-acdc00000008,0.8421052631578947,00061805-0008-4444-8888-acdc00000008,RWG Wesermarsch eG,,Wilhelmshavener Str.,202,26180,Rastede,53.289539337158,8.1647539138794,2017-03-10T00:00:26.000+01:00,{}
00061806-400d-4444-8888-acdc00000009,0.8421052631578947,00061806-400d-4444-8888-acdc00000009,RWG Wesermarsch eG,,Raiffeisenstr.,13,26349,Jade - Jaderberg,53.33854675293,8.1831827163696,2015-07-21T00:00:01.000+02:00,{}
005056a9-4231-1edc-bb91-2847efed0567,0.625,005056a9-4231-1edc-bb91-2847efed0567,ENI,AGIP ENI,Holzkirchen Süd - Schmiedstraße,16,83607,Holzkirchen/Oberbay.,47.907334,11.717317,2023-02-28T18:01:19.000+01:00,{}
6c9d0e18-a79e-4d73-a5f4-4fd542b17923,0.6585365853658537,6c9d0e18-a79e-4d73-a5f4-4fd542b17923,Bft Hamburg Ladenbeker Furtweg 136,bft,Ladenbeker Furtweg,136,21033,Hamburg,53.4973,10.1805,2014-03-18T16:45:31.000+01:00,"\"{\"\"openingTimes\"\":[{\"\"applicable_days\"\":192"
8b243590-0c91-45dc-8439-806355c5c3b7,0.9047619047619048,8b243590-0c91-45dc-8439-806355c5c3b7,Esso Station,ESSO,Memminger Str. 60,"",87439,Kempten (Allgäu),47.734508,10.310273,2014-03-18T16:45:31.000+01:00,"\"{\"\"openingTimes\"\":[{\"\"applicable_days\"\":63"
37a40b86-8ade-45c5-aae1-4ebbab5188fc,0.8260869565217391,37a40b86-8ade-45c5-aae1-4ebbab5188fc,Esso Tankstelle,ESSO,NEUE MAINZER STR. 131,"",55129,MAINZ,49.971724,8.271596,2014-03-18T16:45:31.000+01:00,"\"{\"\"openingTimes\"\":[{\"\"applicable_days\"\":31"
48839aa7-166d-41cd-87cb-4f356625bca8,0.8636363636363636,48839aa7-166d-41cd-87cb-4f356625bca8,Esso Tankstelle,ESSO,BAMBERGSTR. 53,"",59192,BERGKAMEN,51.609136,7.637813,2014-03-18T16:45:31.000+01:00,"\"{\"\"openingTimes\"\":[{\"\"applicable_days\"\":31"
681a20d2-d1dc-4ba2-b084-06f43c1daa11,1.0,681a20d2-d1dc-4ba2-b084-06f43c1daa11,Esso Station,ESSO,Richtfeld 1,"",92442,Wackersdorf,49.313543,12.158657,2014-03-18T16:45:31.000+01:00,{}
250e9c5f-82f4-4408-b7b2-fc9d78f78d60,1.0,250e9c5f-82f4-4408-b7b2-fc9d78f78d60,OIL! Tankstelle Saarlouis,OIL!,Schanzenstr. 21,,66740,Saarlouis,49.3248,6.75106,2014-03-18T16:45:31.000+01:00,"\"{\"\"openingTimes\"\":[{\"\"applicable_days\"\":192"
cf2beb9e-5c65-432d-b5e3-927c8777ade6,0.8571428571428571,cf2beb9e-5c65-432d-b5e3-927c8777ade6,BAD WILDBAD-CALMBACH - KLEINENZT,AGIP ENI,Kleinenztalstrasse,39,75323,Bad Wildbad-Calmbach,48.771255428841,8.583785176043,2014-03-20T00:00:01.000+01:00,"\"{\"\"openingTimes\"\":[{\"\"applicable_days\"\":31"
3f1057c6-aeb9-44d8-9914-645c8b3b410d,0.8333333333333334,3f1057c6-aeb9-44d8-9914-645c8b3b410d,TotalEnergies Brohltal Ost,TotalEnergies,BAB A61 Brohltal Ost,,56651,Niederzissen Ost,50.439823,7.226107,2014-03-18T16:45:31.000+01:00,{}
51d4b645-a095-1aa0-e100-80009459e03a,0.8181818181818182,51d4b645-a095-1aa0-e100-80009459e03a,Supermarkt-Tankstelle LANGENFELD RHEINDORFER STR. 48-56,Supermarkt-Tankstelle,RHEINDORFER STR.,48-56,40764,LANGENFELD,51.09528,6.95077,2014-03-18T16:45:31.000+01:00,"\"{\"\"openingTimes\"\":[{\"\"applicable_days\"\":63"
dbeac45a-0593-44fd-b59f-c577fe9f8413,0.5714285714285714,dbeac45a-0593-44fd-b59f-c577fe9f8413,HEUSENSTAMM - FRANKFURTER STRASSE 1,AGIP ENI,Frankfurter Strasse,110,63150,Heusenstamm,50.05859,8.79407,2014-03-20T00:00:01.000+01:00,"\"{\"\"openingTimes\"\":[{\"\"applicable_days\"\":31"
fcb602ee-2a10-4874-b2b0-4e29819d14db,0.7727272727272727,fcb602ee-2a10-4874-b2b0-4e29819d14db,ENI,AGIP ENI,Leistenstrasse,2,97204,Hoechberg,49.784656,9.885996,2014-03-20T00:00:01.000+01:00,"\"{\"\"openingTimes\"\":[{\"\"applicable_days\"\":63"
005056ba-7cb6-1ed2-bceb-abda1688cd43,0.85,005056ba-7cb6-1ed2-bceb-abda1688cd43,ORLEN Tankstelle,ORLEN,Auf den Blöcken,6,21337,Lüneburg,53.239222,10.460891,2014-03-18T16:45:31.000+01:00,"\"{\"\"openingTimes\"\":[{\"\"applicable_days\"\":31"
005056ba-7cb6-1ed2-bceb-63ab1f800d1d,0.7878787878787878,005056ba-7cb6-1ed2-bceb-63ab1f800d1d,star Tankstelle,STAR,Vennhofallee,54,33689,Bielefeld,51.947805,8.582413,2014-03-18T16:45:31.000+01:00,"\"{\"\"overrides\"\":[{\"\"startp\"\":\"\"2024-12-30 08:00\"\""
005056ba-7cb6-1ee4-a59d-d03bd07dcfc9,0.8571428571428571,005056ba-7cb6-1ee4-a59d-d03bd07dcfc9,star Tankstelle,STAR,Thüringer Straße,127,37539,Bad Grund,51.78186,10.199712,2015-01-06T06:00:01.000+01:00,"\"{\"\"overrides\"\":[{\"\"startp\"\":\"\"2024-12-31 08:00\"\""
ce241717-4c5c-1eda-b8b2-b9c61f135510,0.9459459459459459,ce241717-4c5c-1eda-b8b2-b9c61f135510,JET FRIEDRICHSHAFEN ZEPPELINSTR. 190,JET,ZEPPELINSTR.,190,88048,FRIEDRICHSHAFEN,47.66205,9.43381,2020-09-23T00:01:17.000+02:00,"\"{\"\"openingTimes\"\":[{\"\"applicable_days\"\":31"
51d4b5ce-a095-1aa0-e100-80009459e03a,0.95,51d4b5ce-a095-1aa0-e100-80009459e03a,JET HETTSTEDT WALBECK KAEMMRITZER WEG 11,JET,KAEMMRITZER WEG,11,06333,HETTSTEDT WALBECK,51.6571,11.48562,2014-03-18T16:45:31.000+01:00,"\"{\"\"openingTimes\"\":[{\"\"applicable_days\"\":31"
51d4b720-a095-1aa0-e100-80009459e03a,0.7894736842105263,51d4b720-a095-1aa0-e100-80009459e03a,JET BAMBERG ZEPPELINSTRASSE 3,JET,ZEPPELINSTRASSE,3,96052,BAMBERG,49.91538,10.90616,2014-03-18T16:45:31.000+01:00,{}
51d4b6fe-a095-1aa0-e100-80009459e03a,0.9166666666666666,51d4b6fe-a095-1aa0-e100-80009459e03a,JET NORDHORN DENEKAMPER STR. 112A,JET,DENEKAMPER STR.,112A,48529,NORDHORN,52.42087,7.05344,2014-03-18T16:45:31.000+01:00,"\"{\"\"openingTimes\"\":[{\"\"applicable_days\"\":31"
3333871d-3109-4fe8-a4f1-69ec6f3bc22c,0.7916666666666666,3333871d-3109-4fe8-a4f1-69ec6f3bc22c,tankpoint Tankstelle,tankpoint,Macherstraße,105,01917,Kamenz,51.2873955936,14.1120631738,2014-03-18T16:45:31.000+01:00,"\"{\"\"openingTimes\"\":[{\"\"applicable_days\"\":127"
0d7b12a6-df95-4e49-b9c4-bf40bbb2c726,0.8076923076923077,0d7b12a6-df95-4e49-b9c4-bf40bbb2c726,TotalEnergies Otterbach,TotalEnergies,Obere Lauter Str.,37,67731,Otterbach,49.478785,7.735516,2014-03-18T16:45:31.000+01:00,"\"{\"\"openingTimes\"\":[{\"\"applicable_days\"\":31"
66b0ef10-63ee-4ede-9c3d-05f576baf5aa,0.9583333333333334,66b0ef10-63ee-4ede-9c3d-05f576baf5aa,TotalEnergies Overath,TotalEnergies,Lindlarer Str.,143,51491,Overath,50.962701,7.244351,2014-03-18T16:45:31.000+01:00,"\"{\"\"openingTimes\"\":[{\"\"applicable_days\"\":31"
785b0333-ab0f-4f07-a7cb-42eb0c685783,0.7,785b0333-ab0f-4f07-a7cb-42eb0c685783,TotalEnergies Herzogenrath,TotalEnergies,Voccartstr.,80,52134,Herzogenrath,50.850548,6.076434,2014-03-18T16:45:31.000+01:00,"\"{\"\"openingTimes\"\":[{\"\"applicable_days\"\":31"
13e6cbc0-a11d-4b81-a3d1-ae048c14aaea,0.6818181818181818,13e6cbc0-a11d-4b81-a3d1-ae048c14aaea,ERLANGEN - ÄUSSERE BRUCKER STR. 17,SUPOL,Äussere Brucker Str.,170,91058,Erlangen,49.577599,10.986883,2014-03-18T16:45:31.000+01:00,"\"{\"\"overrides\"\":[{\"\"startp\"\":\"\"2024-12-31 05:00\"\""
8fb186ef-f0e4-4194-a36b-16e7350dfec3,0.7647058823529411,8fb186ef-f0e4-4194-a36b-16e7350dfec3,Agten Freie Tankstelle,Agten Freie Tankstelle,Gildehauser Str.,184,48599,Gronau,52.224234,7.04613,2014-03-18T16:45:31.000+01:00,"\"{\"\"openingTimes\"\":[{\"\"applicable_days\"\":31"
b1a67e95-0c0d-4010-a4b7-c370cbc4b2bc,0.8,b1a67e95-0c0d-4010-a4b7-c370cbc4b2bc,Esso Tankstelle,ESSO,MUELHEIMER STR. 151,"",47058,DUISBURG,51.433637,6.794265,2014-03-18T16:45:31.000+01:00,"\"{\"\"openingTimes\"\":[{\"\"applicable_days\"\":127"
53d3de9d-0048-4d64-9a30-54934c60f034,0.9523809523809523,53d3de9d-0048-4d64-9a30-54934c60f034,RLB Raiffeisen-Landbund eG,Raiffeisen-Landbund eG,Enzer Str.,96,31655,Stadthagen,52.32347,9.181638,2018-09-26T23:30:07.000+02:00,{}
86b326fe-dc4e-4075-95ff-a51cc02c0235,0.7407407407407407,86b326fe-dc4e-4075-95ff-a51cc02c0235,AVIA Tankstelle,AVIA,Zur Grossen Heide,51,33335,Gütersloh,51.9395,8.480576,2014-03-18T16:45:31.000+01:00,"\"{\"\"openingTimes\"\":[{\"\"applicable_days\"\":31"
092b6bef-776f-41e5-bcd9-577b2eb14bda,0.9230769230769231,092b6bef-776f-41e5-bcd9-577b2eb14bda,Shell Massing Eggenfeldener Str. 36,Shell,Eggenfeldener Str.,36,84323,Massing,48.39478,12.614749,2014-03-18T16:45:31.000+01:00,"\"{\"\"overrides\"\":[{\"\"startp\"\":\"\"2024-12-31 06:30\"\""
184cde49-c3ae-4c57-8a7f-9122c9b148ff,0.8055555555555556,184cde49-c3ae-4c57-8a7f-9122c9b148ff,Shell Achim Bremer Str. 72-74,Shell,Bremer Str.,72-74,28832,Achim,53.01576,9.017375,2014-03-18T16:45:31.000+01:00,{}
10d13975-7819-4c49-86be-3465bfdc59f9,0.9615384615384616,10d13975-7819-4c49-86be-3465bfdc59f9,Shell Heddesheim Viernheimer Str. 24,Shell,Viernheimer Str.,24,68542,Heddesheim,49.508488,8.59823,2014-03-18T16:45:31.000+01:00,"\"{\"\"openingTimes\"\":[{\"\"applicable_days\"\":255"
41ffbaba-e407-4afd-917b-3cebaa930264,0.8484848484848485,41ffbaba-e407-4afd-917b-3cebaa930264,Aral Tankstelle,ARAL,Lachener Straße,56,86911,Dießen,47.957966,11.102196,2014-03-18T16:45:31.000+01:00,"\"{\"\"openingTimes\"\":[{\"\"applicable_days\"\":64"
5d7e851d-f637-402a-8d6d-639d35a39390,0.6829268292682927,5d7e851d-f637-402a-8d6d-639d35a39390,Aral Tankstelle,ARAL,Aachener Straße,1100,50858,Köln,50.93839,6.848411,2014-03-18T16:45:31.000+01:00,{}
1ad20106-b7cd-42d9-a15e-7f22a5578ccf,0.8928571428571429,1ad20106-b7cd-42d9-a15e-7f22a5578ccf,Aral Tankstelle,ARAL,Saar-Pfalz-Straße,,66440,Blieskastel-Aßweiler,49.213017,7.181737,2014-03-18T16:45:31.000+01:00,"\"{\"\"openingTimes\"\":[{\"\"applicable_days\"\":64"
325b88ea-8b32-4b8d-8290-a731325ba378,0.8571428571428571,325b88ea-8b32-4b8d-8290-a731325ba378,Aral Tankstelle,ARAL,Hauptstraße,88,88074,Meckenbeuren,47.69338,9.559551,2014-03-18T16:45:31.000+01:00,"\"{\"\"openingTimes\"\":[{\"\"applicable_days\"\":96"
a8b37d51-1779-4fe5-9289-4012cfbf431e,0.7586206896551724,a8b37d51-1779-4fe5-9289-4012cfbf431e,Aral Tankstelle,ARAL,Freiburger Landstraße,23,79112,Freiburg,47.98194,7.717552,2014-03-18T16:45:31.000+01:00,"\"{\"\"openingTimes\"\":[{\"\"applicable_days\"\":64"
df601ea5-97f5-4b23-93c3-15d4944be74c,0.9411764705882353,df601ea5-97f5-4b23-93c3-15d4944be74c,Aral Tankstelle,ARAL,Gökerstraße/Ecke Peterstr,,26384,Wilhelmshaven,53.520424,8.12359,2014-03-18T16:45:31.000+01:00,{}
6a625a13-310c-43fb-8316-4e8027a54510,0.9583333333333334,6a625a13-310c-43fb-8316-4e8027a54510,Aral Tankstelle,ARAL,Leipziger Straße,208,08058,Zwickau,50.742687,12.488169,2014-03-18T16:45:31.000+01:00,{}
e9d64f92-25d9-462e-9b4d-255835d635e2,1.0,e9d64f92-25d9-462e-9b4d-255835d635e2,BayWa Tankstelle Augsburg Lechhausen,BayWa,Am Mittleren Moos,6,86167,Augsburg/Lechhausen,48.39216,10.93732,2016-08-04T00:00:01.000+02:00,{}
769a92b8-6f6e-417f-a641-b304de2e4803,0.6666666666666666,769a92b8-6f6e-417f-a641-b304de2e4803,Peter Rieper GmbH&Co.KG,BFT,Ostfeld,7,21635,Jork,53.52715,9.68596,2014-03-18T16:45:31.000+01:00,{}
a15722b3-7a77-49f9-a222-79c494391294,0.8695652173913043,a15722b3-7a77-49f9-a222-79c494391294,AVIA Tankstelle,AVIA,Berliner Straße,148,33330,Gütersloh,51.91232,8.387662,2014-03-18T16:45:31.000+01:00,"\"{\"\"openingTimes\"\":[{\"\"applicable_days\"\":31"
42121b72-78e7-414b-ad5c-c4acce2ba8d0,0.8181818181818182,42121b72-78e7-414b-ad5c-c4acce2ba8d0,Robert Seelig,NORDOEL,Am Kleinbahnhof,3,17506,Gützkow,53.943762,13.396112,2014-03-18T16:45:31.000+01:00,"\"{\"\"openingTimes\"\":[{\"\"applicable_days\"\":127"
c79e278f-5bd9-42fd-934f-acf872a4ff15,1.0,c79e278f-5bd9-42fd-934f-acf872a4ff15,Tankstelle Bayer,Freie Tankstelle Bayer,Hauptstr.,58,84130,Dingolfing,48.639545,12.443969,2014-03-18T16:45:31.000+01:00,"\"{\"\"openingTimes\"\":[{\"\"applicable_days\"\":63"
00061383-0006-4444-8888-acdc00000006,1.0,00061383-0006-4444-8888-acdc00000006,Neukauf Südbayern GmbH,EDEKA,Am Westpark,8,85057,Ingolstadt,48.775730133057,11.388429641724,2014-03-18T16:45:31.000+01:00,{}
fa2db0aa-191f-49b6-98a0-b58c6710061e,0.9333333333333333,fa2db0aa-191f-49b6-98a0-b58c6710061e,Lars Sander,Westfalen,Lindenstr.,35,49586,Neuenkirchen,52.41971,7.83828,2014-03-18T16:45:31.000+01:00,"\"{\"\"openingTimes\"\":[{\"\"applicable_days\"\":32"
c83474cf-5736-43eb-adc5-91ccb28bb5e8,0.6153846153846154,c83474cf-5736-43eb-adc5-91ccb28bb5e8,TopTank Station,TopTank,Pörnbacher Str. 2,"",86558,Hohenwart,48.60232,11.423796,2014-03-18T16:45:31.000+01:00,{}
51e3908d-b5ee-4cf6-89b1-2cbc4b6c2710,0.9285714285714286,51e3908d-b5ee-4cf6-89b1-2cbc4b6c2710,Aral Tankstelle,ARAL,Pingsdorfer Straße,106,50321,Brühl,50.820614,6.895321,2014-03-18T16:45:31.000+01:00,"\"{\"\"openingTimes\"\":[{\"\"applicable_days\"\":96"
7784ef59-0cbd-4c6f-bedc-941f9d196116,0.64,7784ef59-0cbd-4c6f-bedc-941f9d196116,LUDWIGSBURG - FRIESENSTRASSE 38,AGIP ENI,Friesenstrasse,38,71640,Ludwigsburg,48.89322,9.2233,2014-03-20T00:00:01.000+01:00,"\"{\"\"openingTimes\"\":[{\"\"applicable_days\"\":31"
dac1e156-e3ee-406d-b12b-ac9f81851360,0.7692307692307693,dac1e156-e3ee-406d-b12b-ac9f81851360,TotalEnergies Noerdlingen,TotalEnergies,Nuernberger Str.,61,86720,Noerdlingen,48.860782,10.502197,2014-08-27T00:00:01.000+02:00,{}
fc74ef28-e973-41e7-973a-1984c665ff21,0.7352941176470589,fc74ef28-e973-41e7-973a-1984c665ff21,TotalEnergies Hagen,TotalEnergies,Weststr.,10,58089,Hagen,51.385874,7.437439,2014-03-18T16:45:31.000+01:00,{}
30690da8-8b82-442c-9edf-9d9cc315c77a,0.8484848484848485,30690da8-8b82-442c-9edf-9d9cc315c77a,TotalEnergies Truckstop Bremen Hemelingen,TotalEnergies Truckstop,Europaallee,5A,28309,Bremen,53.034886,8.887201,2017-03-15T00:00:26.000+01:00,{}
5a5ed93f-84aa-4517-dc7c-c888f278b5c7,0.6153846153846154,5a5ed93f-84aa-4517-dc7c-c888f278b5c7,Gulf Neuseddin,GULF,Pappelallee,50,14554,Seddiner See,52.2888,13.0057,2014-03-18T16:45:31.000+01:00,{}
656babfc-31ec-4539-aee2-7c3a450237c6,0.9444444444444444,656babfc-31ec-4539-aee2-7c3a450237c6,LBD-Holdorf,LBD Tankstelle,Neuenkirchener Straße,8,49451,Holdorf,52.58514,8.11887,2014-03-18T16:45:31.000+01:00,{}
aa842438-c80d-46c1-828f-2cadb756d016,0.6046511627906976,aa842438-c80d-46c1-828f-2cadb756d016,Tankstelle Ewersbach,Roth- Energie,Hauptstr.,156,35716,Dietzhölztal,50.83524,8.3064,2014-05-16T00:00:01.000+02:00,{}
c0ae896c-a64e-4190-aab9-1ebf1907d85f,1.0,c0ae896c-a64e-4190-aab9-1ebf1907d85f,Frankfurt,Mr. Wash Autoservice AG,Hanauer Landstraße,419,60314,Frankfurt,50.12093,8.73524,2014-03-18T16:45:31.000+01:00,"\"{\"\"overrides\"\":[{\"\"startp\"\":\"\"2024-12-28 08:30\"\""
68b9f88b-7999-4d22-bcf2-902d53cfa928,0.8076923076923077,68b9f88b-7999-4d22-bcf2-902d53cfa928,Silja Marks,NORDOEL,Rendsburger Straße,125,24340,Eckernförde,54.452001,9.832695,2020-07-02T00:01:16.000+02:00,"\"{\"\"openingTimes\"\":[{\"\"applicable_days\"\":64"
c8137d18-edad-4006-9746-18e876b14b1d,0.8333333333333334,c8137d18-edad-4006-9746-18e876b14b1d,Shell Muenster Albersloher Weg 415,Shell,Albersloher Weg,415,48167,Muenster,51.930266,7.666145,2014-03-18T16:45:31.000+01:00,"\"{\"\"openingTimes\"\":[{\"\"applicable_days\"\":192"
e9dbe860-031d-42d2-a96c-8a958df9f764,1.0,e9dbe860-031d-42d2-a96c-8a958df9f764,Shell Meerbusch Neusser Str. 19b,Shell,Neusser Str.,19b,40667,Meerbusch,51.242918,6.698049,2014-03-18T16:45:31.000+01:00,"\"{\"\"openingTimes\"\":[{\"\"applicable_days\"\":255"
5d7cfe3b-781a-415a-8d4e-ad93161915c0,0.696969696969697,5d7cfe3b-781a-415a-8d4e-ad93161915c0,Shell Gelsenkirchen Junkerweg 23,Shell,Junkerweg,23,45879,Gelsenkirchen,51.499081,7.102117,2014-03-18T16:45:31.000+01:00,{}
261f6058-0d26-4c67-b286-3f85600cf558,0.7666666666666667,261f6058-0d26-4c67-b286-3f85600cf558,Aral Tankstelle,ARAL,Nürnberger Str.,39,91257,Pegnitz,49.749702,11.539701,2014-03-18T16:45:31.000+01:00,"\"{\"\"openingTimes\"\":[{\"\"applicable_days\"\":64"
effc821d-719d-46d1-b449-e1b4cbf01b52,0.6052631578947368,effc821d-719d-46d1-b449-e1b4cbf01b52,Aral Tankstelle,ARAL,Taunus-Schnellweg-Südseite A,661,61352,Bad Homburg,50.208427,8.615339,2014-03-18T16:45:31.000+01:00,{}
7f028be4-8ca3-4d43-9a3d-1b170187f614,0.7428571428571429,7f028be4-8ca3-4d43-9a3d-1b170187f614,Aral Tankstelle,ARAL,Nuernberger Straße,126,90762,Fürth,49.467564,11.005729,2014-03-18T16:45:31.000+01:00,{}
32e040d4-e103-4d46-98b5-fbce0a6fcc9e,0.868421052631579,32e040d4-e103-4d46-98b5-fbce0a6fcc9e,Aral Tankstelle,ARAL,Frankfurter Straße,390,51103,Köln,50.942745,7.027255,2014-03-18T16:45:31.000+01:00,{}
0360ce43-06c6-4c8f-b141-35461117e016,0.5254237288135594,0360ce43-06c6-4c8f-b141-35461117e016,bft Sankt Augustin,bft,Hennefer Str.,42,53757,Sankt Augustin,50.7724,7.1929,2014-03-18T16:45:31.000+01:00,"\"{\"\"openingTimes\"\":[{\"\"applicable_days\"\":64"
2de34d80-97f4-4b90-8a9f-defc58293296,0.825,2de34d80-97f4-4b90-8a9f-defc58293296,Shell Braunschweig Helmstedter Str 132,Shell,Helmstedter Str,132,38102,Braunschweig,52.258014,10.544762,2014-03-18T16:45:31.000+01:00,"\"{\"\"openingTimes\"\":[{\"\"applicable_days\"\":255"
2ea53360-0688-a5bf-e100-00000630df04,0.8571428571428571,2ea53360-0688-a5bf-e100-00000630df04,AGIP ENI,AGIP ENI,Ernst-Busse-Str.,35,99427,Weimar,51.00748,11.334211,2024-01-19T00:52:47.000+01:00,"\"{\"\"openingTimes\"\":[{\"\"applicable_days\"\":31"
689a63e1-0d41-46b2-9ff5-17d71519109d,0.6285714285714286,689a63e1-0d41-46b2-9ff5-17d71519109d,TotalEnergies Wuppertal,TotalEnergies,Jesinghauser Str.,110,42389,Wuppertal,51.282761,7.256123,2014-03-18T16:45:31.000+01:00,"\"{\"\"openingTimes\"\":[{\"\"applicable_days\"\":31"
8af011e8-4202-4f43-b6f0-a3fa446469cc,0.8571428571428571,8af011e8-4202-4f43-b6f0-a3fa446469cc,BAG - Tanken - Service - GmbH,Freie Tankstelle,Hauptstr.,9,89561,Dischingen,48.69651,10.36349,2014-03-18T16:45:31.000+01:00,{}
e5c7596b-2bfd-4b44-a61b-eca1e8431ab0,0.2857142857142857,e5c7596b-2bfd-4b44-a61b-eca1e8431ab0,Total BAT Köckern Ost,,BAT A9 - Köckern Ost,,06794,Köckern,51.608163,12.186959,2018-01-08T23:30:06.000+01:00,{}
c031489b-b5a7-4b31-8aee-26b9c78795d9,0.7454545454545455,c031489b-b5a7-4b31-8aee-26b9c78795d9,Freie Tankstelle Weilheim-Teck,Freie Tankstelle Weilheim-Teck,Carl-Benz Strasse,6,73235,Weilheim-Teck,48.62409,9.54759,2014-04-02T00:00:01.000+02:00,{}
9972e61a-5416-4877-bf9c-6bbdf254a959,0.6666666666666666,9972e61a-5416-4877-bf9c-6bbdf254a959,AVIA Tankstelle,AVIA,Leerer Straße,39,26810,Westoverledingen,53.17647,7.484924,2014-03-18T16:45:31.000+01:00,"\"{\"\"openingTimes\"\":[{\"\"applicable_days\"\":15"
3466286a-4747-40d2-99bd-b658921fd58b,0.5714285714285714,3466286a-4747-40d2-99bd-b658921fd58b,Q1 Tankstelle,Q1,Nürnberger Straße,15,36211,Alheim,51.0487,9.66276,2017-09-08T23:30:06.000+02:00,"\"{\"\"overrides\"\":[{\"\"startp\"\":\"\"2024-12-31 07:00\"\""
9f115c71-623a-4a10-bfdd-a88bd821606a,0.8571428571428571,9f115c71-623a-4a10-bfdd-a88bd821606a,TopTank Tankstelle,TopTank,KONRAD-ADENAUER-STR. 24,"",31737,RINTELN,52.19529,9.087135,2014-03-18T16:45:31.000+01:00,"\"{\"\"openingTimes\"\":[{\"\"applicable_days\"\":63"
44f32c6a-1ee8-4385-84e2-8bd517965e94,0.7352941176470589,44f32c6a-1ee8-4385-84e2-8bd517965e94,bft Volpriehausen,bft,Bollertstraße,12,37170,Volpriehausen,51.664221,9.737166,2014-03-18T16:45:31.000+01:00,"\"{\"\"overrides\"\":[{\"\"startp\"\":\"\"2024-12-31 00:05\"\""
94e639e1-6117-4230-b252-7fd28578d2d0,0.8636363636363636,94e639e1-6117-4230-b252-7fd28578d2d0,Knies+Lagotka Tankstelle,Knies+Lagotka,Kasseler Str.,1,34632,Jesberg,50.996871948242,9.1462841033935,2019-12-04T16:01:13.000+01:00,{}
a9a88978-4c93-4666-a450-6564112736c3,1.0,a9a88978-4c93-4666-a450-6564112736c3,PM Xpress 24 Unkel Anton-Limbach-Str. 2,PM Xpress 24,Anton-Limbach-Str.,2,53572,Unkel,50.594354,7.219658,2021-12-15T14:01:15.000+01:00,"\"{\"\"openingTimes\"\":[{\"\"applicable_days\"\":255"
0511428e-6252-43e5-85bc-ee392b57c52e,0.7741935483870968,0511428e-6252-43e5-85bc-ee392b57c52e,OIL! Tankstelle Kühlungsborn,OIL!,Schloßstraße 26,,18225,Kühlungsborn,54.1309,11.7518,2014-03-18T16:45:31.000+01:00,"\"{\"\"openingTimes\"\":[{\"\"applicable_days\"\":224"
5d560793-9908-4e80-aba4-21f5d67ba7c8,1.0,5d560793-9908-4e80-aba4-21f5d67ba7c8,SB Eppelborn Im Flürchen,SB,Im Flürchen,27,66571,Eppelborn,49.414541,6.923152,2023-12-19T00:41:47.000+01:00,"\"{\"\"overrides\"\":[{\"\"startp\"\":\"\"2025-01-01 12:00\"\""
005056ba-7cb6-1ed2-bceb-9fdd1c31cd3d,0.75,005056ba-7cb6-1ed2-bceb-9fdd1c31cd3d,star Tankstelle,STAR,Hülser Straße,201,47803,Krefeld,51.345281,6.548132,2014-03-18T16:45:31.000+01:00,"\"{\"\"overrides\"\":[{\"\"startp\"\":\"\"2024-12-31 07:00\"\""
005056ba-7cb6-1ed2-bceb-af46afab8d45,0.7916666666666666,005056ba-7cb6-1ed2-bceb-af46afab8d45,star Tankstelle,STAR,Schalker Straße,91,45881,Gelsenkirchen,51.517064,7.090903,2014-03-18T16:45:31.000+01:00,"\"{\"\"overrides\"\":[{\"\"startp\"\":\"\"2025-01-01 09:00\"\""
51d4b476-a095-1aa0-e100-80009459e03a,1.0,51d4b476-a095-1aa0-e100-80009459e03a,JET FRANKFURT BORSIGALLEE 29,JET,BORSIGALLEE,29,60388,FRANKFURT,50.13837,8.74441,2014-03-18T16:45:31.000+01:00,{}
51d4b510-a095-1aa0-e100-80009459e03a,0.8666666666666667,51d4b510-a095-1aa0-e100-80009459e03a,JET ASCHERSLEBEN GUESTENER STR. 18C,JET,GUESTENER STR.,18C,06449,ASCHERSLEBEN,51.76647,11.48027,2014-03-18T16:45:31.000+01:00,"\"{\"\"openingTimes\"\":[{\"\"applicable_days\"\":31"
51d4b42b-a095-1aa0-e100-80009459e03a,0.625,51d4b42b-a095-1aa0-e100-80009459e03a,JET GRUENBERG GIESSENER STR. 17-19,JET,GIESSENER STR.,17-19,35305,GRUENBERG,50.59377,8.95625,2014-03-18T16:45:31.000+01:00,"\"{\"\"openingTimes\"\":[{\"\"applicable_days\"\":31"
434e0e33-ba58-47d1-8d2e-81e45cce5ff7,0.7619047619047619,434e0e33-ba58-47d1-8d2e-81e45cce5ff7,"Eberhardt, Werner-von-Siemens-Straße, Bruchsal",,Werner-von-Siemens-Straße,24a,76646,Bruchsal,49.127391,8.585791,2014-03-18T16:45:31.000+01:00,{}
ce21dd2b-ea91-46de-b319-b830de07b938,0.875,ce21dd2b-ea91-46de-b319-b830de07b938,Tankcenter Saarbruecken,Tankcenter,Deutschherrnstr.,34-40,66117,Saarbruecken,49.231742,6.979499,2014-03-18T16:45:31.000+01:00,"\"{\"\"openingTimes\"\":[{\"\"applicable_days\"\":31"
d18fc3b1-33fe-44ee-b16d-ca01fdb9148b,0.7619047619047619,d18fc3b1-33fe-44ee-b16d-ca01fdb9148b,TotalEnergies Wittenberge,TotalEnergies,Parkstr.,90A,19322,Wittenberge,53.001296,11.746876,2014-03-18T16:45:31.000+01:00,"\"{\"\"openingTimes\"\":[{\"\"applicable_days\"\":127"
97305a76-6175-4824-a55e-97da5d886ca8,0.7647058823529411,97305a76-6175-4824-a55e-97da5d886ca8,WEISSENBURG - NÜRNBERGER STRASSE 51,AGIP ENI,Nürnberger Strasse,51,91781,Weissenburg,49.039097,10.970397,2014-03-20T00:00:01.000+01:00,"\"{\"\"openingTimes\"\":[{\"\"applicable_days\"\":31"
1a5f5773-cf00-44ac-ab78-3e83ea1a02bb,0.8,1a5f5773-cf00-44ac-ab78-3e83ea1a02bb,TotalEnergies Dreieich,TotalEnergies,Darmstaedter Str.,92,63303,Dreieich,50.008819,8.689436,2014-03-18T16:45:31.000+01:00,"\"{\"\"openingTimes\"\":[{\"\"applicable_days\"\":31"
4dae617d-6dbb-4ee8-9a5e-5f08a9bbe9f7,0.7307692307692307,4dae617d-6dbb-4ee8-9a5e-5f08a9bbe9f7,Kai Schuldt,Esso,Hildburghäuser Str.,23,98553,Schleusingen,50.5063,10.7434,2014-03-18T16:45:31.000+01:00,"\"{\"\"openingTimes\"\":[{\"\"applicable_days\"\":64"
c23c8526-f2e9-4905-9e33-560cd8671c1e,1.0,c23c8526-f2e9-4905-9e33-560cd8671c1e,STOCKACH - RADOLFZELLER STRASSE 35,AGIP ENI,Radolfzeller Strasse,35,78333,Stockach,47.845046167019,8.999270771737,2014-03-20T00:00:01.000+01:00,"\"{\"\"openingTimes\"\":[{\"\"applicable_days\"\":31"
e1e4230d-98d0-433b-ad28-bf673862592f,0.75,e1e4230d-98d0-433b-ad28-bf673862592f,AVIA Tankstelle,AVIA,Karlsruher Straße,95,74889,Sinsheim-Dühren,49.24307,8.826669,2014-03-18T16:45:31.000+01:00,"\"{\"\"openingTimes\"\":[{\"\"applicable_days\"\":31"
c8317587-beb3-4157-92cb-471857c2955a,0.8,c8317587-beb3-4157-92cb-471857c2955a,Hamburg-Stillhorn Ost,ARAL,"BAB A1, Jakobsberg",9,21109,Hamburg,53.4839249,10.0264511,2014-03-18T16:45:31.000+01:00,{}
bffa2b4f-0e72-4b01-85e2-f87f580a88ab,0.8461538461538461,bffa2b4f-0e72-4b01-85e2-f87f580a88ab,Shell Neuruppin Heinrich-Rau-Str. 26,Shell,Heinrich-Rau-Str.,26,16816,Neuruppin,52.918331,12.789132,2014-03-18T16:45:31.000+01:00,{}
f2c36e2b-0323-40bc-84ab-d71269441800,0.9047619047619048,f2c36e2b-0323-40bc-84ab-d71269441800,Shell Paderborn Muensterstr. 7,Shell,Muensterstr.,7,33104,Paderborn,51.742818,8.707673,2014-03-18T16:45:31.000+01:00,"\"{\"\"openingTimes\"\":[{\"\"applicable_days\"\":255"
bb61c295-7480-465c-988f-334dfaf96ab0,0.7317073170731707,bb61c295-7480-465c-988f-334dfaf96ab0,Shell Frankfurt Am Main Niederraeder Ufer 51,Shell,Niederraeder Ufer,51,60528,Frankfurt Am Main,50.088542,8.635852,2014-03-18T16:45:31.000+01:00,{}
2e679868-dea6-496e-a1dd-81221e067fa1,0.8620689655172413,2e679868-dea6-496e-a1dd-81221e067fa1,Shell Doebeln Mastener Str. 1,Shell,Mastener Str.,1,04720,Doebeln,51.122246,13.101353,2014-03-18T16:45:31.000+01:00,"\"{\"\"overrides\"\":[{\"\"startp\"\":\"\"2025-01-02 06:00\"\""
e5b69ac7-bdee-4c66-bd1a-a8ca8dbffb5d,0.7333333333333333,e5b69ac7-bdee-4c66-bd1a-a8ca8dbffb5d,Aral Tankstelle,ARAL,Münchner Straße,10,85635,Höhenkirchen-Siegert,48.019726,11.709872,2014-03-18T16:45:31.000+01:00,"\"{\"\"openingTimes\"\":[{\"\"applicable_days\"\":64"
02d816ca-6b8a-44c5-81ec-fb564e029c74,0.8823529411764706,02d816ca-6b8a-44c5-81ec-fb564e029c74,Aral Tankstelle,ARAL,Pforzheimer Straße,55,75417,Mühlacker,48.94828,8.834584,2014-03-18T16:45:31.000+01:00,"\"{\"\"openingTimes\"\":[{\"\"applicable_days\"\":64"
d3b61144-df3a-44fd-8e66-2ce0ebd4e796,0.8461538461538461,d3b61144-df3a-44fd-8e66-2ce0ebd4e796,Aral Tankstelle,ARAL,Schlossstraße,63-64,12165,Berlin,52.45308,13.315076,2014-03-18T16:45:31.000+01:00,{}
36877a01-5dd8-4260-9c53-b028ffeb2be8,0.9285714285714286,36877a01-5dd8-4260-9c53-b028ffeb2be8,Aral Tankstelle,ARAL,Salzunger Straße,27,36433,Leimbach,50.813587,10.20417,2014-03-18T16:45:31.000+01:00,{}
ddff40f3-6c85-49e1-8863-8bba19e35085,0.8888888888888888,ddff40f3-6c85-49e1-8863-8bba19e35085,Aral Tankstelle,ARAL,Kitzinger Straße,38,97359,Schwarzach,49.78962,10.215601,2014-03-18T16:45:31.000+01:00,"\"{\"\"openingTimes\"\":[{\"\"applicable_days\"\":127"
b86ee3cd-f5be-4e74-92fe-c5206a4d3f3e,0.8275862068965517,b86ee3cd-f5be-4e74-92fe-c5206a4d3f3e,Aral Tankstelle,ARAL,Bahnhofstraße,57,52388,Nörvenich,50.809734,6.636635,2014-03-18T16:45:31.000+01:00,"\"{\"\"openingTimes\"\":[{\"\"applicable_days\"\":64"
3565089d-337f-456e-b68f-f87905655535,0.675,3565089d-337f-456e-b68f-f87905655535,Esso Tankstelle,ESSO,SCHUETZENSTR. 38,"",45699,HERTEN,51.592781,7.144707,2014-03-18T16:45:31.000+01:00,"\"{\"\"openingTimes\"\":[{\"\"applicable_days\"\":31"
28f831fa-06e6-4f33-9363-287747fea9a2,0.8235294117647058,28f831fa-06e6-4f33-9363-287747fea9a2,Esso Station,ESSO,Herbolzheimer Str. 1,"",77975,Ringsheim,48.250171,7.766293,2014-03-18T16:45:31.000+01:00,{}
b37672f3-67e7-4a54-8098-d56e995bcec1,0.825,b37672f3-67e7-4a54-8098-d56e995bcec1,Esso Station,ESSO,Werner-von-Siemens-Str. 45,"",91052,Erlangen,49.592723,11.014228,2014-03-18T16:45:31.000+01:00,{}
00047369-0001-4444-8888-acdc00000001,1.0,00047369-0001-4444-8888-acdc00000001,Tankstelle Franz Dechantsreiter,,Innstrasse,11,84453,Mühldorf am Inn,48.241470336914,12.520819664002,2015-01-20T06:00:01.000+01:00,"\"{\"\"openingTimes\"\":[{\"\"applicable_days\"\":31"
641ebf86-1141-4c1f-b78b-f27b639cb648,1.0,641ebf86-1141-4c1f-b78b-f27b639cb648,WT-Stedinger Straße,Wiro,Stedinger Straße,12,26723,Emden,53.363788,7.177179,2014-03-18T16:45:31.000+01:00,{}
b7fa32cf-416d-499e-dcbc-af2cc55ac29c,0.696969696969697,b7fa32cf-416d-499e-dcbc-af2cc55ac29c,Tankstelle H.-Kirchrode,JOISS,Brabeckstr.,39,30559,Hannover,52.355959,9.827709,2019-05-01T23:30:06.000+02:00,"\"{\"\"overrides\"\":[{\"\"startp\"\":\"\"2024-12-31 05:30\"\""
1bb7f57f-32f2-44db-bd1a-b582452685bd,0.5365853658536586,1bb7f57f-32f2-44db-bd1a-b582452685bd,TopTank Station,TopTank,Hauptstr. 89,"",63322,Rödermark,50.004248,8.812832,2014-03-18T16:45:31.000+01:00,"\"{\"\"openingTimes\"\":[{\"\"applicable_days\"\":31"
005056ba-7cb6-1ed2-bceb-b66a984c4d4a,0.7037037037037037,005056ba-7cb6-1ed2-bceb-b66a984c4d4a,star Tankstelle,STAR,Kasseler Straße,30,34560,Fritzlar,51.134782,9.273476,2014-03-18T16:45:31.000+01:00,"\"{\"\"openingTimes\"\":[{\"\"applicable_days\"\":15"
93d1a836-ec60-4bca-b313-d0e9cf1e5411,0.75,93d1a836-ec60-4bca-b313-d0e9cf1e5411,Aral Tankstelle,ARAL,Robert-Bosch-Straße,10,71701,Schwieberdingen,48.8819,9.079281,2014-03-18T16:45:31.000+01:00,"\"{\"\"openingTimes\"\":[{\"\"applicable_days\"\":32"
51d4b52c-a095-1aa0-e100-80009459e03a,0.88,51d4b52c-a095-1aa0-e100-80009459e03a,JET MAINZ WORMSER STR. 135,JET,WORMSER STR.,135,55130,MAINZ,49.98203,8.30591,2014-03-18T16:45:31.000+01:00,"\"{\"\"openingTimes\"\":[{\"\"applicable_days\"\":63"
b617fc5f-e468-4238-b9ba-62bf07bbb027,0.8235294117647058,b617fc5f-e468-4238-b9ba-62bf07bbb027,ENI,AGIP ENI,Herterichstrasse,111,81477,München,48.07513,11.51092,2014-03-20T00:00:01.000+01:00,"\"{\"\"openingTimes\"\":[{\"\"applicable_days\"\":31"
9b853a49-b529-4c9f-ab1f-ae8676a9acb1,0.8571428571428571,9b853a49-b529-4c9f-ab1f-ae8676a9acb1,TotalEnergies Hauneck,TotalEnergies,Huenfelder Str.,4,36282,Hauneck,50.824224,9.732466,2014-03-18T16:45:31.000+01:00,{}
671e47a2-b789-47e3-bab0-04b596e039ec,0.7837837837837838,671e47a2-b789-47e3-bab0-04b596e039ec,TotalEnergies Ludwigsfelde,TotalEnergies,Brandenburgische Str.,3,14974,Ludwigsfelde,52.311758,13.243392,2014-03-18T16:45:31.000+01:00,{}
a8c6d07a-2c64-4b28-937f-fa279c79fc3c,0.5,a8c6d07a-2c64-4b28-937f-fa279c79fc3c,RAN Station,RAN,Holzbachstr.,2,86152,Augsburg,48.370695,10.878602,2014-03-18T16:45:31.000+01:00,{}
ea8763f2-de7c-46cb-a23c-dc9a27cd22ff,0.9166666666666666,ea8763f2-de7c-46cb-a23c-dc9a27cd22ff,"Argos Tankstelle, Alte Gladbacher Straße",Argos,Alte Gladbacher Str.,5,47805,Krefeld,51.32253275,6.55471741,2014-03-18T16:45:31.000+01:00,"\"{\"\"openingTimes\"\":[{\"\"applicable_days\"\":31"
f3b2af0c-601f-41e4-33cc-5f9af868ade1,0.6153846153846154,f3b2af0c-601f-41e4-33cc-5f9af868ade1,Gulf Großkorbetha,GULF,Merseburger Str.,40,06688,Großkorbetha,51.2666,12.0271,2014-03-18T16:45:31.000+01:00,"\"{\"\"openingTimes\"\":[{\"\"applicable_days\"\":96"
0eaec4bb-bc33-4e62-a111-a641a3ae4203,0.7954545454545454,0eaec4bb-bc33-4e62-a111-a641a3ae4203,PM Dormagen In Ueckerath 115,PM,In Ueckerath,115,41542,Dormagen,51.109747,6.748876,2018-01-16T23:30:07.000+01:00,"\"{\"\"overrides\"\":[{\"\"startp\"\":\"\"2024-12-31 07:00\"\""
342fc5b8-3cd8-453c-8fcb-b97be66e51d1,1.0,342fc5b8-3cd8-453c-8fcb-b97be66e51d1,OIL! Tankstelle Greifswald,OIL!,Am Neuen Friedhof 1,,17489,Greifswald,54.0925,13.3552,2014-03-18T16:45:31.000+01:00,{}
44bb22d7-ea88-4055-84be-93812280386c,0.9736842105263158,44bb22d7-ea88-4055-84be-93812280386c,OIL! Tankstelle Sundhagen / Ot Miltzow,OIL!,Reinberger Straße 26,,18519,Sundhagen / Ot Miltzow,54.2025,13.2017,2014-03-18T16:45:31.000+01:00,{}
d1aab9e0-d758-497a-bab1-6c351fa2e860,1.0,d1aab9e0-d758-497a-bab1-6c351fa2e860,OIL! Tankstelle Flensburg,OIL!,Apenrader Str. 109,,24939,Flensburg,54.8086,9.42204,2014-03-18T16:45:31.000+01:00,"\"{\"\"openingTimes\"\":[{\"\"applicable_days\"\":192"
450d85a9-0d5f-489d-8d07-d55a555a85eb,0.8333333333333334,450d85a9-0d5f-489d-8d07-d55a555a85eb,BSD GmbH,freie Tankstelle,Bersenbrücker Str.,19,49577,Ankum,52.542895,7.879954,2014-03-18T16:45:31.000+01:00,"\"{\"\"openingTimes\"\":[{\"\"applicable_days\"\":63"
c74255f8-8d2f-4350-b874-54e8633aaacf,0.9032258064516129,c74255f8-8d2f-4350-b874-54e8633aaacf,Marcel Kluge,Westfalen,Osnabrücker Str.,21,49214,Bad Rothenfelde,52.1131,8.16219,2014-03-18T16:45:31.000+01:00,"\"{\"\"openingTimes\"\":[{\"\"applicable_days\"\":32"
55968817-dab6-408b-8f9c-61b42de99d31,0.9411764705882353,55968817-dab6-408b-8f9c-61b42de99d31,Shell Lahnstein Braubacher Str. 75,Shell,Braubacher Str.,75,56112,Lahnstein,50.284895,7.629157,2014-03-18T16:45:31.000+01:00,"\"{\"\"overrides\"\":[{\"\"startp\"\":\"\"2024-12-31 08:00\"\""
9f62b44a-5ed2-4ae4-ab0e-c32c5eadb22f,0.6764705882352942,9f62b44a-5ed2-4ae4-ab0e-c32c5eadb22f,Aral Tankstelle,ARAL,Lindenstraße,33,63538,Großkrotzenburg,50.081867,8.986247,2014-03-18T16:45:31.000+01:00,"\"{\"\"openingTimes\"\":[{\"\"applicable_days\"\":64"
06b35678-0789-43b9-996f-2d3210d04d64,0.8285714285714286,06b35678-0789-43b9-996f-2d3210d04d64,Aral Tankstelle,ARAL,McDonalds-Straße,1,16356,Blumberg,52.582424,13.587225,2014-03-18T16:45:31.000+01:00,{}
35313b71-ead5-4759-9d29-c5ae7858fb8b,0.8518518518518519,35313b71-ead5-4759-9d29-c5ae7858fb8b,Aral Tankstelle,ARAL,Kurfürstenstraße,69,54516,Wittlich,49.98228,6.900637,2014-03-18T16:45:31.000+01:00,{}
557843c0-4e47-429e-997d-9e7b9b8e61bb,0.8723404255319149,557843c0-4e47-429e-997d-9e7b9b8e61bb,Shell Frankfurt Am Main Erich-Ollenhauer-Ring,Shell,Erich-Ollenhauer-Ring,,60439,Frankfurt Am Main,50.159158,8.634045,2014-03-18T16:45:31.000+01:00,{}
9721c18f-d5f8-4a1c-a0b2-720fdcfde6b8,0.7878787878787878,9721c18f-d5f8-4a1c-a0b2-720fdcfde6b8,Axel Kaiser,Shell,Harburger Str.,13,21218,Seevetal,53.38642,9.97529,2014-03-18T16:45:31.000+01:00,"\"{\"\"overrides\"\":[{\"\"startp\"\":\"\"2025-10-31 07:00\"\""
e1a15081-24cb-9107-e040-0b0a3dfe563c,0.65,e1a15081-24cb-9107-e040-0b0a3dfe563c,"Berlin, Zabel-Krüger-Damm 20",HEM,Zabel-Krüger-Damm,20,13469,Berlin,52.608667,13.327813,2014-03-18T16:45:31.000+01:00,"\"{\"\"openingTimes\"\":[{\"\"applicable_days\"\":127"
e6375887-6bb4-4fef-9c53-a5fe9833b3a5,0.7931034482758621,e6375887-6bb4-4fef-9c53-a5fe9833b3a5,Ralf Rehburg,Westfalen,Kasseler Str.,38,34560,Fritzlar,51.13571,9.27256,2014-03-18T16:45:31.000+01:00,{}
d690b99e-97f7-4a6f-bea7-1710e90e02ac,0.7894736842105263,d690b99e-97f7-4a6f-bea7-1710e90e02ac,AVIA XPress,AVIA XPress,Bamberger Straße,30,96317,Kronach,50.22969349,11.31446122,2017-01-11T00:00:01.000+01:00,{}
86b75ae7-66d5-4940-af3b-c9225d459041,0.7931034482758621,86b75ae7-66d5-4940-af3b-c9225d459041,TotalEnergies Mainz,TotalEnergies,Bingerstr.,27,55131,Mainz,49.997663,8.256677,2014-03-18T16:45:31.000+01:00,"\"{\"\"openingTimes\"\":[{\"\"applicable_days\"\":31"
51d4b507-a095-1aa0-e100-80009459e03a,0.7,51d4b507-a095-1aa0-e100-80009459e03a,JET HAMBURG LANGENHORNER CHAUSSEE 393,JET,LANGENHORNER CHAUSSEE,393,22419,HAMBURG,53.66029,10.00234,2014-03-18T16:45:31.000+01:00,{}
005056ba-7cb6-1ed2-bceb-74a6f3fccd25,0.7777777777777778,005056ba-7cb6-1ed2-bceb-74a6f3fccd25,star Tankstelle,STAR,Nordseestraße,23,25813,Husum,54.506026,9.007791,2014-03-18T16:45:31.000+01:00,"\"{\"\"overrides\"\":[{\"\"startp\"\":\"\"2024-12-30 07:00\"\""
2965c434-8e99-41ec-aa55-9275015937c1,0.6935483870967742,2965c434-8e99-41ec-aa55-9275015937c1,AVEX Ammern,AVEX,Am Langen Rasen,6,99974,Ammern,51.2388,10.456,2014-03-18T16:45:31.000+01:00,{}
005056a9-779e-1ee6-b4cf-323c24d19fb9,0.6585365853658537,005056a9-779e-1ee6-b4cf-323c24d19fb9,star Tankstelle,STAR,Wietföhr,34,31162,Bad Salzdetfurth,52.049049,10.007356,2017-01-05T00:00:01.000+01:00,"\"{\"\"overrides\"\":[{\"\"startp\"\":\"\"2024-12-31 06:00\"\""
a8dc6c3a-14cc-4a29-8b31-b417ba0524f7,0.8571428571428571,a8dc6c3a-14cc-4a29-8b31-b417ba0524f7,AVIA Tankstelle,AVIA,Ingolstädter Straße,26,93354,Siegenburg,48.75751,11.84877,2014-03-18T16:45:31.000+01:00,{}
c60e6b14-d809-40a0-9a1f-2bd016578a1b,0.5454545454545454,c60e6b14-d809-40a0-9a1f-2bd016578a1b,tankpoint Tankstelle,tankpoint,Castroper Straße,164,45711,Datteln,51.64033717,7.333317248,2014-03-18T16:45:31.000+01:00,{}
b476ed44-2df7-474c-898b-30c8a1474464,1.0,b476ed44-2df7-474c-898b-30c8a1474464,Railand AG,Raiffeisen,Heinrich Leggewie Straße,17,48249,Dülmen,51.81311,7.2928095,2023-10-01T00:40:38.000+02:00,{}
f435506c-f7db-4b95-a46a-6468d98d09bc,0.9230769230769231,f435506c-f7db-4b95-a46a-6468d98d09bc,ENI,AGIP ENI,Hauptstr. (B47),1a,67297,Marnheim,49.62936,8.03572,2014-03-20T00:00:01.000+01:00,"\"{\"\"openingTimes\"\":[{\"\"applicable_days\"\":63"
7fcad90f-1761-48ad-afc5-157befd7d2e1,0.8536585365853658,7fcad90f-1761-48ad-afc5-157befd7d2e1,Esso Tankstelle,ESSO,AMPERTAL 1,"",85777,FAHRENZHAUSEN,48.348772,11.564102,2014-03-18T16:45:31.000+01:00,"\"{\"\"openingTimes\"\":[{\"\"applicable_days\"\":127"
a38b3e72-5c94-4967-904f-a70e05e32414,0.7222222222222222,a38b3e72-5c94-4967-904f-a70e05e32414,Esso Tankstelle,ESSO,LEIPZIGER STR. 104,"",37235,HESSISCH LICHTENAU,51.199112,9.730868,2014-03-18T16:45:31.000+01:00,"\"{\"\"openingTimes\"\":[{\"\"applicable_days\"\":31"
9358a9f7-f41e-4756-9d7a-4f59cbdb2484,0.7804878048780488,9358a9f7-f41e-4756-9d7a-4f59cbdb2484,Esso Tankstelle,ESSO,AKTIENSTR. 34 A,"",45359,ESSEN,51.45958436,6.927510828,2014-03-18T16:45:31.000+01:00,{}
45ac4f18-5a1e-488e-abc2-1b12a922959d,0.76,45ac4f18-5a1e-488e-abc2-1b12a922959d,Esso Tankstelle,ESSO,FABRICIUSSTR. 46,"",22177,HAMBURG,53.596865,10.06054,2014-03-18T16:45:31.000+01:00,"\"{\"\"openingTimes\"\":[{\"\"applicable_days\"\":127"
47193e30-7bb6-4e0a-95e8-0301b7f28f16,0.9183673469387755,47193e30-7bb6-4e0a-95e8-0301b7f28f16,Esso Tankstelle,ESSO,BABSTADTER STR. 66,"",74906,BAD RAPPENAU,49.239606,9.096218,2014-03-18T16:45:31.000+01:00,"\"{\"\"openingTimes\"\":[{\"\"applicable_days\"\":15"
66cdf134-3350-4df4-bde4-f9e0653e8edb,0.48333333333333334,66cdf134-3350-4df4-bde4-f9e0653e8edb,bft Eilendorf,bft,Von-Coels-Str.,137-139,52080,Aachen,50.7773,6.15684,2014-03-18T16:45:31.000+01:00,"\"{\"\"overrides\"\":[{\"\"startp\"\":\"\"2024-12-31 07:00\"\""
59294bcb-fcc4-4859-a498-0ddb23037830,0.8717948717948718,59294bcb-fcc4-4859-a498-0ddb23037830,Calpam Tankstelle,Calpam,Miltenberger Str,60,63920,Großheubach,49.721042633057,9.2309761047363,2014-03-18T16:45:31.000+01:00,{}
a80da4cb-7e5f-49aa-b1db-1ef589e5d953,0.725,a80da4cb-7e5f-49aa-b1db-1ef589e5d953,LEO Hannover,LEO,Alte Stöckener Str.,58,30419,Hannover,52.413087,9.653078,2014-03-18T16:45:31.000+01:00,"\"{\"\"overrides\"\":[{\"\"startp\"\":\"\"2024-12-31 05:00\"\""
1796b9cd-b159-429f-9bea-c209e61c822b,0.65625,1796b9cd-b159-429f-9bea-c209e61c822b,WENDELSTEIN (ROETH.) - BOGENSTR. 3,SUPOL,Bogenstr.,3,90530,Wendelstein (Roeth.),49.367479,11.169276,2014-03-18T16:45:31.000+01:00,{}
3d497b10-a506-4b61-baae-811d342ea96b,0.7317073170731707,3d497b10-a506-4b61-baae-811d342ea96b,Raiffeisen-Warengenossenschaft Osthannover eG,Raiffeisen,Thoenser Straße,20,30938,Burgwedel,52.49314,9.866861,2014-03-18T16:45:31.000+01:00,{}
c12aa86a-0514-40c9-8449-12ff05f128ce,0.74,c12aa86a-0514-40c9-8449-12ff05f128ce,CleanCar AG NL110,CleanCar,Paul-Schäfer-Str.,1,99086,Erfurt,50.997298,11.039321,2014-03-18T16:45:31.000+01:00,"\"{\"\"openingTimes\"\":[{\"\"applicable_days\"\":32"
005056ba-7cb6-1ed2-bceb-68e4c06b8d20,0.8285714285714286,005056ba-7cb6-1ed2-bceb-68e4c06b8d20,star Tankstelle,STAR,Hochbendweg,1,47804,Krefeld,51.30903,6.51361,2014-03-18T16:45:31.000+01:00,"\"{\"\"overrides\"\":[{\"\"startp\"\":\"\"2024-12-31 07:00\"\""
51d4b6db-a095-1aa0-e100-80009459e03a,0.8604651162790697,51d4b6db-a095-1aa0-e100-80009459e03a,JET ECKERNFOERDE BERLINER STR. 21,JET,BERLINER STR.,21,24340,ECKERNFOERDE,54.46294,9.83994,2014-03-18T16:45:31.000+01:00,"\"{\"\"openingTimes\"\":[{\"\"applicable_days\"\":31"
51d4b677-a095-1aa0-e100-80009459e03a,0.8076923076923077,51d4b677-a095-1aa0-e100-80009459e03a,JET BIELEFELD ECKENDORFER STR. 14 A,JET,ECKENDORFER STR.,14 A,33609,BIELEFELD,52.03277,8.55251,2014-03-18T16:45:31.000+01:00,"\"{\"\"openingTimes\"\":[{\"\"applicable_days\"\":31"
7c4ed1ad-dd3f-4ee1-925c-2d11edc84a30,0.9523809523809523,7c4ed1ad-dd3f-4ee1-925c-2d11edc84a30,Raiffeisen-Warengenossenschaft Niedersachsen Mitte eG,Raiffeisen Mitte,Himmelreich,4,27333,Bücken,52.78045,9.1351385,2021-07-28T20:01:20.000+02:00,{}
15257032-b217-4e4f-a588-04c283194214,0.6842105263157895,15257032-b217-4e4f-a588-04c283194214,bft-Tankstelle Oel- Heimburger GmbH Villingendorf,BFT,Rottweiler Str.,29,78667,Villingendorf,48.19814,8.59367,2014-03-18T16:45:31.000+01:00,{}
48d8add0-5a02-41ab-8b01-a19ea2a19173,0.8108108108108109,48d8add0-5a02-41ab-8b01-a19ea2a19173,CLASSIC Osterrönfeld,CLASSIC,Bahnhofstraße,25,24783,Osterrönfeld,54.2912,9.70174,2014-03-18T16:45:31.000+01:00,"\"{\"\"overrides\"\":[{\"\"startp\"\":\"\"2024-12-31 07:00\"\""
5c04404e-1cef-11eb-9fcb-005056a2a083,0.631578947368421,5c04404e-1cef-11eb-9fcb-005056a2a083,CLASSIC Westerholt,CLASSIC,Auricher Straße,68,26556,Westerholt,53.55417,7.47365,2021-01-01T06:01:18.000+01:00,{}
950115a5-ef58-4ff8-a370-ccfa24cb3939,0.5588235294117647,950115a5-ef58-4ff8-a370-ccfa24cb3939,City Tank Kloster Lehnin,City Tank,Kurfuerstenstr.,5,14797,Kloster Lehnin,52.32018,12.74612,2014-03-18T16:45:31.000+01:00,"\"{\"\"openingTimes\"\":[{\"\"applicable_days\"\":31"
9f096c67-0225-4712-a6aa-5b3ed32ed86f,0.8260869565217391,9f096c67-0225-4712-a6aa-5b3ed32ed86f,TotalEnergies Nierstein,TotalEnergies,Boschstr.,2,55283,Nierstein,49.863279,8.332962,2014-03-18T16:45:31.000+01:00,"\"{\"\"openingTimes\"\":[{\"\"applicable_days\"\":127"
b80cd2de-1fc4-43b8-bbd5-9bdf111201ed,0.7916666666666666,b80cd2de-1fc4-43b8-bbd5-9bdf111201ed,Truckstop Hormersdorf,TotalEnergies Truckstop,Gewerbegebiet Hormersdorf,,91220,Schnaittach,49.619294,11.406726,2024-12-20T22:48:59.000+01:00,"\"{\"\"openingTimes\"\":[{\"\"applicable_days\"\":127"
3fbd5443-d904-4e87-85da-eb3f6e814959,0.59375,3fbd5443-d904-4e87-85da-eb3f6e814959,TotalEnergies Gifhorn,TotalEnergies,Calberlaher Damm,54,38518,Gifhorn,52.475355,10.556442,2014-03-18T16:45:31.000+01:00,"\"{\"\"openingTimes\"\":[{\"\"applicable_days\"\":31"
95020271-b0ee-46d4-e3d1-fdc120622c48,0.9230769230769231,95020271-b0ee-46d4-e3d1-fdc120622c48,Schonhoff Mineralöle,Schonhoff Mineralöle,Schützenhof,71-73,49716,Meppen,52.706567,7.284129,2014-03-18T16:45:31.000+01:00,{}
27d8fc6f-4a4f-4224-b845-60c922c74cc0,0.7631578947368421,27d8fc6f-4a4f-4224-b845-60c922c74cc0,tankpoint Tankstelle,tankpoint,Karlstraße,65,89143,Blaubeuren,48.40579075,9.789743546,2014-03-18T16:45:31.000+01:00,"\"{\"\"openingTimes\"\":[{\"\"applicable_days\"\":15"
b806a21e-6e91-4daa-830a-08ac50f50f91,1.0,b806a21e-6e91-4daa-830a-08ac50f50f91,AGRAVIS Niedersachsen Süd GmbH,Raiffeisen,Am Flüthedamm,12,37124,Rosdorf,51.50685,9.912978,2014-03-18T16:45:31.000+01:00,"\"{\"\"openingTimes\"\":[{\"\"applicable_days\"\":31"
0bbe19ef-6ebd-4e10-9873-a840a1472a61,0.9428571428571428,0bbe19ef-6ebd-4e10-9873-a840a1472a61,Shell Bremen Richard-Boljahn-Allee 2,Shell,Richard-Boljahn-Allee,2,28329,Bremen,53.082718,8.878073,2014-03-18T16:45:31.000+01:00,"\"{\"\"openingTimes\"\":[{\"\"applicable_days\"\":224"
676ae5d2-565c-47e9-a70f-0708bf01b374,0.7254901960784313,676ae5d2-565c-47e9-a70f-0708bf01b374,Shell Potsdam Fritz-Zubeil-Str. 1,Shell,Fritz-Zubeil-Str.,1,14482,Potsdam,52.381666,13.100129,2014-03-18T16:45:31.000+01:00,"\"{\"\"openingTimes\"\":[{\"\"applicable_days\"\":192"
77c8895e-fb7d-44c1-9979-3794e337dc20,0.675,77c8895e-fb7d-44c1-9979-3794e337dc20,Shell Oberhausen Centroallee 278,Shell,Centroallee,278,46047,Oberhausen,51.48733,6.8762,2014-03-18T16:45:31.000+01:00,"\"{\"\"openingTimes\"\":[{\"\"applicable_days\"\":192"
f7348919-cf1f-43a6-b247-75c1fd765bc2,0.8695652173913043,f7348919-cf1f-43a6-b247-75c1fd765bc2,Aral Tankstelle,ARAL,Hohe Straße,1,56244,Steinen,50.574776,7.809739,2014-03-18T16:45:31.000+01:00,"\"{\"\"openingTimes\"\":[{\"\"applicable_days\"\":64"
ab0fe68d-d95a-42a4-a8a2-60a420fa408a,0.8,ab0fe68d-d95a-42a4-a8a2-60a420fa408a,Aral Tankstelle,ARAL,Kaltenweider Straße,10,30900,Wedemark,52.54236,9.727444,2014-03-18T16:45:31.000+01:00,"\"{\"\"openingTimes\"\":[{\"\"applicable_days\"\":64"
88701522-766a-4e21-ad7a-ccc850267547,0.9130434782608695,88701522-766a-4e21-ad7a-ccc850267547,Aral Tankstelle,ARAL,Augsburger Straße,25,86477,Adelsried,48.423656,10.720173,2014-03-18T16:45:31.000+01:00,"\"{\"\"openingTimes\"\":[{\"\"applicable_days\"\":64"
1b008ee6-78ea-4485-ab1d-7212a393b471,0.7777777777777778,1b008ee6-78ea-4485-ab1d-7212a393b471,Aral Tankstelle,ARAL,Löbauer Straße,65,02625,Bautzen,51.17863,14.45308,2014-03-18T16:45:31.000+01:00,"\"{\"\"openingTimes\"\":[{\"\"applicable_days\"\":96"
57ba5cdb-c7ca-4d8c-85f2-ffcfcd58b6d3,0.8518518518518519,57ba5cdb-c7ca-4d8c-85f2-ffcfcd58b6d3,Aral Tankstelle,ARAL,An der B,167 Nr. 4,16244,Finowfurt,52.849857,13.684941,2014-03-18T16:45:31.000+01:00,{}
25e0bbe5-1c76-493c-a7f0-58482fd3600f,0.6071428571428571,25e0bbe5-1c76-493c-a7f0-58482fd3600f,Kraft GmbH,Freie Tankstelle,Aktienstr.,168a,45473,Mülheim a.d. Ruhr,51.4457008,6.9052164,2014-03-18T16:45:31.000+01:00,{}
46ee0d42-4179-4450-a3be-a5c2b384794c,0.5675675675675675,46ee0d42-4179-4450-a3be-a5c2b384794c,"bft-Tankstelle Förster, Offenbach",bft,Rumpenheimer Str.,79,63075,Offenbach,50.12293,8.78982,2014-03-18T16:45:31.000+01:00,"\"{\"\"overrides\"\":[{\"\"startp\"\":\"\"2024-12-31 05:00\"\""
39e153fd-73d4-4875-aef4-aa5af9904bc3,0.8,39e153fd-73d4-4875-aef4-aa5af9904bc3,Freie Tankstelle Tan + AK  Herr Ak Habib,,Memminger Str.,36,89287,Bellenberg,48.2530197,10.0956053,2014-03-18T16:45:31.000+01:00,"\"{\"\"openingTimes\"\":[{\"\"applicable_days\"\":127"
51d4b61f-a095-1aa0-e100-80009459e03a,0.9,51d4b61f-a095-1aa0-e100-80009459e03a,JET CUXHAVEN PAPENSTR. 121,JET,PAPENSTR.,121,27472,CUXHAVEN,53.85007,8.71844,2014-03-18T16:45:31.000+01:00,"\"{\"\"openingTimes\"\":[{\"\"applicable_days\"\":15"
51d4b659-a095-1aa0-e100-80009459e03a,0.7419354838709677,51d4b659-a095-1aa0-e100-80009459e03a,JET AUGSBURG DIEDORFER STR. 12,JET,DIEDORFER STR.,12,86154,AUGSBURG,48.40149,10.8776,2014-03-18T16:45:31.000+01:00,"\"{\"\"openingTimes\"\":[{\"\"applicable_days\"\":31"
7a7968f0-5753-47b5-9c54-4fde40e35804,0.8888888888888888,7a7968f0-5753-47b5-9c54-4fde40e35804,AVIA Tankstelle,AVIA,Thomas-Müntzer-Straße,40,06406,Bernburg (Saale),51.779766081979,11.770196155809,2019-09-04T00:01:15.000+02:00,"\"{\"\"openingTimes\"\":[{\"\"applicable_days\"\":31"
067dbfe2-3a57-4ef3-beb3-de80eed28659,0.6153846153846154,067dbfe2-3a57-4ef3-beb3-de80eed28659,Raiffeisen-Warengenossenschaft Tangerhütte eG,Raiffeisen,Gewerbepark,17,39590,Tangermünde,52.54918,11.95757,2014-03-18T16:45:31.000+01:00,{}
00061699-0069-4444-8888-acdc00000069,1.0,00061699-0069-4444-8888-acdc00000069,Calpam Tankstelle,Calpam,Bahnhofstrasse,66,63834,Sulzbach,49.91716003418,9.1481094360352,2014-05-08T00:00:01.000+02:00,"\"{\"\"openingTimes\"\":[{\"\"applicable_days\"\":127"
61b7f87a-3589-48d0-bbf2-0c2dedf6b970,0.53125,61b7f87a-3589-48d0-bbf2-0c2dedf6b970,Tankcenter Speyer,Tankcenter,Lindenstr.,20,67346,Speyer,49.312654,8.437469,2014-03-18T16:45:31.000+01:00,"\"{\"\"openingTimes\"\":[{\"\"applicable_days\"\":127"
6efb33e3-c8f3-49e1-aad9-6bad567917a3,1.0,6efb33e3-c8f3-49e1-aad9-6bad567917a3,Supermarkt Eisenhuettenstadt,Supermarkt,Faehrstr.,12,15890,Eisenhuettenstadt,52.14495,14.645634,2014-03-18T16:45:31.000+01:00,"\"{\"\"openingTimes\"\":[{\"\"applicable_days\"\":63"
88520718-2ac7-454a-997d-b63efec67c42,0.9583333333333334,88520718-2ac7-454a-997d-b63efec67c42,TotalEnergies Dortmund,TotalEnergies,Am Remberg,94,44269,Dortmund,51.493702,7.520649,2014-03-18T16:45:31.000+01:00,"\"{\"\"openingTimes\"\":[{\"\"applicable_days\"\":63"
c4709e5b-e76b-4792-8632-7d9d71ed8c9d,0.8888888888888888,c4709e5b-e76b-4792-8632-7d9d71ed8c9d,KHG Tankstelle Duisburg,,Koloniestr.,140,47057,Duisburg,51.419376,6.786102,2014-03-18T16:45:31.000+01:00,"\"{\"\"openingTimes\"\":[{\"\"applicable_days\"\":63"
00060050-0002-4444-8888-acdc00000002,1.0,00060050-0002-4444-8888-acdc00000002,TankShop Kaiser,Kaiser Freie Tankstelle/Shop,Öflinger Str.,13,79664,Wehr,47.622741699219,7.9049549102783,2014-03-18T16:45:31.000+01:00,"\"{\"\"openingTimes\"\":[{\"\"applicable_days\"\":127"
3e210786-9a6b-49a3-8c3d-e8e2b02a28b3,0.8260869565217391,3e210786-9a6b-49a3-8c3d-e8e2b02a28b3,AVIA Tankstelle,AVIA,Limburger Straße,169,65582,Diez,50.379464,8.045527,2014-03-18T16:45:31.000+01:00,"\"{\"\"openingTimes\"\":[{\"\"applicable_days\"\":31"
00016899-3247-4444-8888-acdc00000007,1.0,00016899-3247-4444-8888-acdc00000007,Röttenbach,BFT Pickelmann,Lohmühlweg,16,91341,Röttenbach,49.660976409912,10.918617248535,2015-11-27T00:00:01.000+01:00,{}
de4da8bc-be21-4450-934d-12f3c31e82ae,0.7391304347826086,de4da8bc-be21-4450-934d-12f3c31e82ae,AVIA Tankstelle,AVIA,Crailsheimer Straße,13,74592,Kirchberg / Jagst,49.20126,9.982255,2014-03-18T16:45:31.000+01:00,{}
5e665e1a-1512-49ab-822f-1e8d7cd51e93,0.6923076923076923,5e665e1a-1512-49ab-822f-1e8d7cd51e93,ENI,AGIP ENI,Raffineriestr.,119,93333,Neustadt/Donau,48.783669269746,11.769583122089,2014-03-20T00:00:01.000+01:00,{}
d9cd2767-1867-43df-841c-af481bbb071b,0.7142857142857143,d9cd2767-1867-43df-841c-af481bbb071b,NEUWIED - ENGERSGAUSTRASSE 67,AGIP ENI,Engersgaustrasse,67,56566,Neuwied,50.4421,7.54527,2014-03-20T00:00:01.000+01:00,"\"{\"\"openingTimes\"\":[{\"\"applicable_days\"\":31"
f3f3b1ad-72ef-424a-8237-96c84ef806af,0.8,f3f3b1ad-72ef-424a-8237-96c84ef806af,TotalEnergies Magdeburg,TotalEnergies,Albert-Vater-Str.,30,39108,Magdeburg,52.141251,11.623434,2014-03-18T16:45:31.000+01:00,{}
54bcfaa2-d3f3-431c-989b-a71cbfab4dcd,0.6764705882352942,54bcfaa2-d3f3-431c-989b-a71cbfab4dcd,TotalEnergies Frankfurt,TotalEnergies,Markendorfer Str.,15,15234,Frankfurt,52.340698,14.529344,2014-03-18T16:45:31.000+01:00,{}
1b80332a-c52a-4e0b-b99f-a5f9635b4764,0.875,1b80332a-c52a-4e0b-b99f-a5f9635b4764,WINHOERING - NEUOETTINGER STR.,AGIP ENI,Neuoettinger Str.,36,84543,Winhoering,48.2630064,12.6563259,2014-03-20T00:00:01.000+01:00,"\"{\"\"openingTimes\"\":[{\"\"applicable_days\"\":31"
add89b89-7736-46e1-9bae-7232dc268651,0.8095238095238095,add89b89-7736-46e1-9bae-7232dc268651,Raiffeisen Hohe Mark Hamaland eG,Raiffeisen,Erler Strasse,3,46286,Dorsten Rhade,51.751507,6.938229,2019-08-30T23:30:09.000+02:00,"\"{\"\"openingTimes\"\":[{\"\"applicable_days\"\":127"
54bfeb1e-3c00-4c67-ae58-ca33451f6022,0.8,54bfeb1e-3c00-4c67-ae58-ca33451f6022,AVIA Tankstelle,AVIA,Bahnhofstraße,11,91486,Uehlfeld,49.66909,10.71988,2014-03-18T16:45:31.000+01:00,{}
90c08f86-a165-4fe7-8f5d-7dd2ad731b4f,0.9423076923076923,90c08f86-a165-4fe7-8f5d-7dd2ad731b4f,bft Greifswald,bft,Wolgaster Str.,62b,17489,Greifswald,54.092,13.4198,2014-03-18T16:45:31.000+01:00,{}
80cc039e-493e-4b2b-a9e0-1044b6c63329,0.88,80cc039e-493e-4b2b-a9e0-1044b6c63329,Shell Mannheim Seckenheimer Str. 17,Shell,Seckenheimer Str.,17,68165,Mannheim,49.480509,8.479488,2014-03-18T16:45:31.000+01:00,{}
03c22aa8-6cfe-455b-9eab-14c08fd663ad,0.7608695652173914,03c22aa8-6cfe-455b-9eab-14c08fd663ad,Michael Zimmermann,Westfalen,Brüsseler Str.,8,45888,Gelsenkirchen,51.51373,7.12315,2018-07-13T23:30:36.000+02:00,{}
a103110a-4efd-4a55-b480-79324de31f3a,0.7441860465116279,a103110a-4efd-4a55-b480-79324de31f3a,Shell Bakum Harmer Str. 45,Shell,Harmer Str.,45,49456,Bakum,52.726099,8.179079,2014-03-18T16:45:31.000+01:00,{}
b29ff104-bdb2-43f7-b026-711c99f10b00,0.7692307692307693,b29ff104-bdb2-43f7-b026-711c99f10b00,Shell Niederwiesa Chemnitzer Str. 23,Shell,Chemnitzer Str.,23,09577,Niederwiesa,50.862693,13.008754,2014-03-18T16:45:31.000+01:00,"\"{\"\"overrides\"\":[{\"\"startp\"\":\"\"2025-01-01 09:00\"\""
ba57bcbc-7b94-4d3a-896f-21ff77773667,0.7073170731707317,ba57bcbc-7b94-4d3a-896f-21ff77773667,Shell Berlin Bahnhofstr. 1,Shell,Bahnhofstr.,1,12305,Berlin,52.386922,13.407901,2014-03-18T16:45:31.000+01:00,"\"{\"\"overrides\"\":[{\"\"startp\"\":\"\"2025-01-01 09:00\"\""
c4860990-56f0-4a66-91c7-2ec84ad7911c,0.8148148148148148,c4860990-56f0-4a66-91c7-2ec84ad7911c,Aral Tankstelle,ARAL,Leipziger Straße,126,37235,Hessisch Lichtenau,51.19915,9.726851,2014-03-18T16:45:31.000+01:00,"\"{\"\"openingTimes\"\":[{\"\"applicable_days\"\":96"
3b4e3503-21ac-4cd2-8afb-84ea5524cea6,0.7241379310344828,3b4e3503-21ac-4cd2-8afb-84ea5524cea6,Aral Tankstelle,ARAL,Holländische Straße,142,34127,Kassel,51.33374,9.495671,2014-03-18T16:45:31.000+01:00,"\"{\"\"openingTimes\"\":[{\"\"applicable_days\"\":96"
97fe6f44-1117-4949-9890-0bc95d8c138d,0.8636363636363636,97fe6f44-1117-4949-9890-0bc95d8c138d,Aral Tankstelle,ARAL,Ulmenstraße,31,90443,Nürnberg,49.429775,11.070766,2014-03-18T16:45:31.000+01:00,{}
8b7d4150-3472-432e-afcc-3cad19634474,0.9142857142857143,8b7d4150-3472-432e-afcc-3cad19634474,Aral Tankstelle,ARAL,Marie-Curie-Straße,2,46446,Emmerich,51.842422,6.275239,2014-03-18T16:45:31.000+01:00,{}
1758764f-d692-4054-8440-b97e4eea6727,0.8666666666666667,1758764f-d692-4054-8440-b97e4eea6727,Aral Tankstelle,ARAL,Rendsburger Landstraße,205,24113,Kiel,54.300465,10.092195,2014-03-18T16:45:31.000+01:00,{}
708b4e8c-e48a-43f5-b231-8794e71760bc,0.9090909090909091,708b4e8c-e48a-43f5-b231-8794e71760bc,Aral Tankstelle,ARAL,Hamburger Straße,35,22941,Bargteheide,53.724255,10.255379,2014-03-18T16:45:31.000+01:00,{}
2a56602f-a301-45a5-a76a-b3bc47c6dedd,0.7073170731707317,2a56602f-a301-45a5-a76a-b3bc47c6dedd,Honsel TS Melsungen,Honsel,Kasseler Str.,65,34212,Melsungen,51.138779,9.540132,2014-03-18T16:45:31.000+01:00,{}
679937a9-5d9b-42b5-af48-bf2621c5ba4d,0.7142857142857143,679937a9-5d9b-42b5-af48-bf2621c5ba4d,Shell Bad Kreuznach Rüdesheimer Str 110,Shell,Rüdesheimer Str,110,55545,Bad Kreuznach,49.848797,7.83964,2014-03-18T16:45:31.000+01:00,"\"{\"\"openingTimes\"\":[{\"\"applicable_days\"\":192"
b410abbf-74a0-4a83-9cc7-b355e722b0b9,0.8461538461538461,b410abbf-74a0-4a83-9cc7-b355e722b0b9,TotalEnergies Poessneck,TotalEnergies,Neustaedter Str.,160,07381,Poessneck,50.701059,11.614298,2014-03-18T16:45:31.000+01:00,"\"{\"\"openingTimes\"\":[{\"\"applicable_days\"\":31"
f9f33d1b-3959-499c-b696-caaa9567f31a,0.7,f9f33d1b-3959-499c-b696-caaa9567f31a,ENI,AGIP ENI,Heilbronner Str.,390,70469,Stuttgart,48.8206654,9.175279,2014-03-20T00:00:01.000+01:00,{}
22e6248b-d251-4974-8ebe-8e655730f798,1.0,22e6248b-d251-4974-8ebe-8e655730f798,AVIA XPress,AVIA XPress,Gewerbepark,1,36160,Dipperz,50.54037,9.786794,2015-07-21T00:00:01.000+02:00,{}
619a34c3-c2f4-4dbd-9157-5966afb9aed8,0.8235294117647058,619a34c3-c2f4-4dbd-9157-5966afb9aed8,SCHARR-Tankstelle,SCHARR-Tankstelle,Handwerkstrasse,35,70565,Stuttgart,48.719587,9.124684,2014-03-18T16:45:31.000+01:00,{}
e1a15081-25d6-9107-e040-0b0a3dfe563c,0.8571428571428571,e1a15081-25d6-9107-e040-0b0a3dfe563c,"Burgdorf, Berliner Ring 24",HEM,Berliner Ring,24,31303,Burgdorf,52.4357,10.017191,2014-03-18T16:45:31.000+01:00,"\"{\"\"openingTimes\"\":[{\"\"applicable_days\"\":31"
92ebf87b-07a2-4986-987a-9ac4af49f310,0.6190476190476191,92ebf87b-07a2-4986-987a-9ac4af49f310,"Deißlingen, Bahnhofstr. 91",HEM,Bahnhofstr.,91,78652,Deißlingen,48.113059,8.61544,2015-11-19T00:00:01.000+01:00,"\"{\"\"openingTimes\"\":[{\"\"applicable_days\"\":63"
34347890-3a4e-4c9c-87fd-8325e0843925,0.5172413793103449,34347890-3a4e-4c9c-87fd-8325e0843925,Wiro Tankcenter Uplengen,,Augustfehner Straße,6,26670,Uplengen,53.264335,7.752224,2014-03-18T16:45:31.000+01:00,{}
a9716987-df7c-43fe-8c19-af42475b42ac,0.6486486486486487,a9716987-df7c-43fe-8c19-af42475b42ac,AVIA Tankstelle,AVIA,Hauptstraße,24,49779,Niederlangen,52.85856,7.280882,2014-03-18T16:45:31.000+01:00,{}
80401fbe-1c62-4bce-8527-d9c7a621a9d8,1.0,80401fbe-1c62-4bce-8527-d9c7a621a9d8,RWG TS Bad Frankenhausen,Raiffeisen Mansfeld,Seehäuser Str.,73,06567,Bad Frankenhausen,51.344329,11.111155,2014-03-18T16:45:31.000+01:00,{}
d2fd5d12-f15a-4baa-90f6-3f1dab9e13c8,0.9285714285714286,d2fd5d12-f15a-4baa-90f6-3f1dab9e13c8,Tank- und Baumarkt Zahna,,Bahnhofstraße,33,06895,Zahna,51.919061,12.783277,2014-03-18T16:45:31.000+01:00,{}
005056ba-7cb6-1ed2-bceb-8f2aa1df2d35,0.8529411764705882,005056ba-7cb6-1ed2-bceb-8f2aa1df2d35,ORLEN Tankstelle,ORLEN,An der B 5/15,,25920,Stedesand,54.739553,8.930698,2014-03-18T16:45:31.000+01:00,"\"{\"\"overrides\"\":[{\"\"startp\"\":\"\"2024-12-31 07:30\"\""
f63b4f1c-b244-4d24-82b6-da8e0360b1af,0.95,f63b4f1c-b244-4d24-82b6-da8e0360b1af,Esso Station,ESSO,Auseestr. 4,"",83543,Rott am Inn,47.978707,12.139002,2014-03-18T16:45:31.000+01:00,"\"{\"\"openingTimes\"\":[{\"\"applicable_days\"\":127"
98545697-5e04-4d28-96bc-fdb9a26d5dc9,0.7368421052631579,98545697-5e04-4d28-96bc-fdb9a26d5dc9,Esso Tankstelle,ESSO,FORNSBACHER STR. 60,"",71540,MURRHARDT,48.977052,9.587545,2014-03-18T16:45:31.000+01:00,"\"{\"\"openingTimes\"\":[{\"\"applicable_days\"\":31"
83a8cd7f-8efa-44fe-b70b-d869d5fd87a8,0.8461538461538461,83a8cd7f-8efa-44fe-b70b-d869d5fd87a8,Esso Tankstelle,ESSO,FRAUENBERGSTR. 51,"",88339,BAD WALDSEE,47.916044,9.749073,2014-03-18T16:45:31.000+01:00,"\"{\"\"openingTimes\"\":[{\"\"applicable_days\"\":31"
dec4640a-1fbd-4e24-a96e-9e8be7cc041d,0.6666666666666666,dec4640a-1fbd-4e24-a96e-9e8be7cc041d,Esso Tankstelle,ESSO,VARRESBECKER STR. 100,"",42115,WUPPERTAL,51.250863,7.103818,2014-03-18T16:45:31.000+01:00,{}
79900c12-01ef-4ba3-e7e1-81d976f22792,0.7619047619047619,79900c12-01ef-4ba3-e7e1-81d976f22792,Heinrich Albers OHG,,Bäderstr.,1,26434,Hooksiel,53.633923,8.016114,2014-03-18T16:45:31.000+01:00,"\"{\"\"overrides\"\":[{\"\"startp\"\":\"\"2024-12-31 06:00\"\""
2cd9c367-6c32-4076-be29-861a6e14330d,0.8,2cd9c367-6c32-4076-be29-861a6e14330d,Pinoil,Pinoil,Südstraße,74,71404,Korb,48.83841,9.366056,2014-03-18T16:45:31.000+01:00,"\"{\"\"openingTimes\"\":[{\"\"applicable_days\"\":32"
974b40bc-51da-4de5-82de-44d23d3ba2a4,0.453125,974b40bc-51da-4de5-82de-44d23d3ba2a4,Udo Rosch,Tank & Wasch Udo Rosch,Esperantostrasse,5,59846,Sundern,51.2954,7.984,2024-02-28T23:37:38.000+01:00,{}
747e8bd0-dd43-4de9-845b-12ad58851e94,0.7272727272727273,747e8bd0-dd43-4de9-845b-12ad58851e94,24h Tankstelle - Autohaus Bopp,Freie Tankstelle,Leinweiler Straße,15,73579,Schechingen,48.873452171079,9.9220915484287,2024-04-12T00:54:50.000+02:00,{}
3982dabe-a25f-4cc9-ae9b-d52f93e69dc2,0.7051282051282052,3982dabe-a25f-4cc9-ae9b-d52f93e69dc2,Q1 Tankstelle,Q1,Tönisvorster Str.,100,41749,Viersen,51.2864,6.3847,2021-12-02T02:01:17.000+01:00,"\"{\"\"overrides\"\":[{\"\"startp\"\":\"\"2024-12-31 08:00\"\""
005056ba-7cb6-1ed2-bceb-aa7b1db88d43,0.7317073170731707,005056ba-7cb6-1ed2-bceb-aa7b1db88d43,star Tankstelle,STAR,Lengericher Straße,11,49170,Hagen,52.209677,7.920837,2014-03-18T16:45:31.000+01:00,"\"{\"\"overrides\"\":[{\"\"startp\"\":\"\"2024-12-31 07:00\"\""
b57a2a2e-33c0-4eff-b99e-d51901fddf81,0.9696969696969697,b57a2a2e-33c0-4eff-b99e-d51901fddf81,Bezugs- u. Absatzgenossenschaft Raiffeisen eG,Avia,Raiffeisenstr.,10,88094,Oberteuringen,47.72451,9.464301,2014-03-18T16:45:31.000+01:00,{}
005056ba-7cb6-1ed2-bceb-cd7120324d57,0.8235294117647058,005056ba-7cb6-1ed2-bceb-cd7120324d57,star Tankstelle,STAR,Stedinger Straße,7,27777,Ganderkesee,53.088952,8.528414,2014-03-18T16:45:31.000+01:00,"\"{\"\"overrides\"\":[{\"\"startp\"\":\"\"2024-12-31 05:00\"\""
005056ba-7cb6-1ed2-bceb-9e0eee900d3c,0.7575757575757576,005056ba-7cb6-1ed2-bceb-9e0eee900d3c,star Tankstelle,STAR,Darpestraße,41,44793,Bochum,51.48603,7.18313,2014-03-18T16:45:31.000+01:00,"\"{\"\"overrides\"\":[{\"\"startp\"\":\"\"2024-12-31 05:30\"\""
51d4b596-a095-1aa0-e100-80009459e03a,0.5909090909090909,51d4b596-a095-1aa0-e100-80009459e03a,JET HEMAU NUERNBERGER STR. 48,JET,NUERNBERGER STR.,48,93155,HEMAU,49.05673,11.77581,2014-03-18T16:45:31.000+01:00,"\"{\"\"openingTimes\"\":[{\"\"applicable_days\"\":15"
51d4b54c-a095-1aa0-e100-80009459e03a,0.9047619047619048,51d4b54c-a095-1aa0-e100-80009459e03a,JET HAMBURG HORNER LANDSTR. 380,JET,HORNER LANDSTR.,380,22111,HAMBURG,53.54385,10.09121,2014-03-18T16:45:31.000+01:00,{}
51d4b548-a095-1aa0-e100-80009459e03a,0.7857142857142857,51d4b548-a095-1aa0-e100-80009459e03a,JET SOEST WERLER LANDSTR. 4,JET,WERLER LANDSTR.,4,59494,SOEST,51.5645,8.08801,2014-03-18T16:45:31.000+01:00,{}
51d4b4c8-a095-1aa0-e100-80009459e03a,0.6444444444444445,51d4b4c8-a095-1aa0-e100-80009459e03a,JET GROSS UMSTADT GEORG-AUGUST-ZINN-STR. 100,JET,GEORG-AUGUST-ZINN-STR.,100,64823,GROSS UMSTADT,49.87196,8.9145,2014-03-18T16:45:31.000+01:00,"\"{\"\"openingTimes\"\":[{\"\"applicable_days\"\":31"
6c963dd4-c877-439f-90c4-9d45b4bc75ff,0.7142857142857143,6c963dd4-c877-439f-90c4-9d45b4bc75ff,SB-Markttankstelle Gera Thüringer Str.,SB-Markttankstelle,Thüringer Str.,26,07552,Gera,50.899548,12.103378,2014-03-18T16:45:31.000+01:00,"\"{\"\"overrides\"\":[{\"\"startp\"\":\"\"2024-12-31 13:59\"\""
8b230dd2-0ac7-4ffa-babb-1b5913b3f913,0.8648648648648649,8b230dd2-0ac7-4ffa-babb-1b5913b3f913,Armin Bauer GmbH,bft-Tankstelle,Untere Hauptstr.,2,97291,Thüngersheim,49.88223,9.83951,2015-09-05T00:00:01.000+02:00,"\"{\"\"openingTimes\"\":[{\"\"applicable_days\"\":31"
08827d14-e99c-4e7d-9013-b0cc6d612d5e,0.8787878787878788,08827d14-e99c-4e7d-9013-b0cc6d612d5e,TotalEnergies Remseck,TotalEnergies,Aldinger Str.,8,71686,Remseck,48.875278,9.270556,2014-03-18T16:45:31.000+01:00,"\"{\"\"openingTimes\"\":[{\"\"applicable_days\"\":31"
2d4706ce-542c-49e0-9875-35fee334196c,0.7674418604651163,2d4706ce-542c-49e0-9875-35fee334196c,TotalEnergies Erfurt,TotalEnergies,Augsburger Str.,2,99091,Erfurt,51.002242,11.002569,2014-03-18T16:45:31.000+01:00,"\"{\"\"openingTimes\"\":[{\"\"applicable_days\"\":63"
69f766eb-c497-491d-8a92-b99b799c94dc,0.782608695652174,69f766eb-c497-491d-8a92-b99b799c94dc,TotalEnergies Bingen,TotalEnergies,Schulth.-Kollei-Str.,23,55411,Bingen,49.950114,7.903223,2014-03-18T16:45:31.000+01:00,"\"{\"\"openingTimes\"\":[{\"\"applicable_days\"\":63"
63f76982-130d-48d7-9a4b-a7b8e94485d7,0.9130434782608695,63f76982-130d-48d7-9a4b-a7b8e94485d7,Raiffeisen Agil Leese eG,Raiffeisen,Raiffeisenstr.,1 - 2,31633,Leese,52.52582,9.12252,2014-08-22T00:00:01.000+02:00,{}
f652a7ca-f506-46c1-89df-95eb3ad30b21,1.0,f652a7ca-f506-46c1-89df-95eb3ad30b21,Raiffeisen-Borchen,Raiffeisen,Rudolf-Diesel-Straße,8,33178,Borchen,51.643072,8.709148,2022-05-31T02:01:18.000+02:00,{}
49c4982f-34a1-44d9-bcf0-db92095afe63,0.4878048780487805,49c4982f-34a1-44d9-bcf0-db92095afe63,TotalEnergies Autohof Evendorf,TotalEnergies Autohof,Thaneberg,1,21272,Egestorf,53.161598,10.062042,2023-06-28T20:01:18.000+02:00,{}
1106cf26-a0fa-48c3-8fdf-552dd038373b,0.8095238095238095,1106cf26-a0fa-48c3-8fdf-552dd038373b,Shell Karlsfeld Muenchner Str. 163,Shell,Muenchner Str.,163,85757,Karlsfeld,48.225518,11.468155,2014-03-18T16:45:31.000+01:00,"\"{\"\"openingTimes\"\":[{\"\"applicable_days\"\":224"
bc770005-0ead-4528-97c4-e05be98fdf2b,0.7027027027027027,bc770005-0ead-4528-97c4-e05be98fdf2b,Shell Hemer Hauptstr. 254-56,Shell,Hauptstr.,254-256,58675,Hemer,51.390083,7.763102,2014-03-18T16:45:31.000+01:00,"\"{\"\"overrides\"\":[{\"\"startp\"\":\"\"2025-01-01 08:00\"\""
7d5fad20-67bc-4970-b576-4e3fb371e48e,0.76,7d5fad20-67bc-4970-b576-4e3fb371e48e,Shell Fuerstenwalde/Spree Hegelstr. 21,Shell,Hegelstr.,21,15517,Fuerstenwalde/Spree,52.37371,14.045981,2014-03-18T16:45:31.000+01:00,"\"{\"\"openingTimes\"\":[{\"\"applicable_days\"\":224"
541db64a-d8cf-4d9b-9dfa-9d7a846173e8,0.7,541db64a-d8cf-4d9b-9dfa-9d7a846173e8,Shell Krefeld Frankenring 82-90,Shell,Frankenring,82-90,47798,Krefeld,51.328377,6.549004,2014-03-18T16:45:31.000+01:00,"\"{\"\"openingTimes\"\":[{\"\"applicable_days\"\":255"
17aebe85-fcf2-4a83-9a9a-2be8333ba229,0.8125,17aebe85-fcf2-4a83-9a9a-2be8333ba229,Aral Tankstelle,ARAL,An der Aspe,1,36137,Großenlüder,50.582054,9.542041,2014-03-18T16:45:31.000+01:00,"\"{\"\"openingTimes\"\":[{\"\"applicable_days\"\":64"
3ecbb42a-e873-4b8b-a4ad-6686e77e67f4,1.0,3ecbb42a-e873-4b8b-a4ad-6686e77e67f4,Aral Tankstelle,ARAL,Hammer Straße,231,59075,Hamm,51.689995,7.775106,2014-03-18T16:45:31.000+01:00,{}
12996c9c-d041-46f1-9921-99e6d7113577,0.9166666666666666,12996c9c-d041-46f1-9921-99e6d7113577,Aral Tankstelle,ARAL,Stresemannstraße,310,27580,Bremerhaven,53.57057,8.598823,2014-03-18T16:45:31.000+01:00,{}
76165ca6-3b50-4d24-854a-f079f26321e8,0.9375,76165ca6-3b50-4d24-854a-f079f26321e8,Aral Tankstelle,ARAL,Prälat-Caire-Straße,14,67071,Ludwigshafen,49.49206,8.383311,2014-03-18T16:45:31.000+01:00,{}
44f93d12-b0dd-4ac0-a4f4-e63846ad7407,0.8333333333333334,44f93d12-b0dd-4ac0-a4f4-e63846ad7407,Aral Tankstelle,ARAL,Ichtershaeuser Straße,84,99310,Arnstadt,50.85677,10.958926,2014-03-18T16:45:31.000+01:00,"\"{\"\"openingTimes\"\":[{\"\"applicable_days\"\":96"
58c009f1-4250-428a-b5de-0efd4b200177,0.6486486486486487,58c009f1-4250-428a-b5de-0efd4b200177,Shell Berlin Martin-Luther-Str. 29,Shell,Martin-Luther-Str.,29,10777,Berlin,52.496247,13.3466,2014-03-18T16:45:31.000+01:00,{}
e250349c-a0c1-4eed-859a-673d9e37b8d8,0.6363636363636364,e250349c-a0c1-4eed-859a-673d9e37b8d8,Esso Tankstelle,ESSO,KALTENWEIDER STR. 29,"",30900,WEDEMARK,52.546617,9.726291,2014-03-18T16:45:31.000+01:00,"\"{\"\"openingTimes\"\":[{\"\"applicable_days\"\":31"
8dd39ed5-f22d-4d82-b24b-ad0261bbfd37,0.6451612903225806,8dd39ed5-f22d-4d82-b24b-ad0261bbfd37,Esso Tankstelle,ESSO,HOCHFELLNSTR. 21,"",83346,BERGEN,47.804571,12.590665,2014-03-18T16:45:31.000+01:00,"\"{\"\"openingTimes\"\":[{\"\"applicable_days\"\":63"
3ea6d9b0-bac9-45a2-8dc8-6fe7a202c346,0.8181818181818182,3ea6d9b0-bac9-45a2-8dc8-6fe7a202c346,Esso Station,ESSO,Priener Str. 10,"",83233,Bernau,47.812803,12.372081,2014-03-18T16:45:31.000+01:00,{}
26f2c3df-706a-58aa-a33b-b2faf6ce15d7,1.0,26f2c3df-706a-58aa-a33b-b2faf6ce15d7,Ingolstadt,Hoyer,Carl-Benz-Str.,5,85053,Ingolstadt,48.74222946167,11.46839046478,2023-12-08T00:37:18.000+01:00,{}
672b7ebb-4ae5-5947-b017-fde03155ee32,1.0,672b7ebb-4ae5-5947-b017-fde03155ee32,Pfaffenhofen an der Ilm,Hoyer,Joseph-Fraunhofer-Str.,59,85276,Pfaffenhofen an der Ilm,48.54605484009,11.51069259644,2023-12-14T00:40:23.000+01:00,{}
73bd41f9-9d9c-47f7-902f-8321fa9b7330,0.9230769230769231,73bd41f9-9d9c-47f7-902f-8321fa9b7330,FM-Tankstelle,Frommann Energie,Bremer Str.,65,21224,Rosengarten,53.37731,9.89274,2014-03-18T16:45:31.000+01:00,{}
530df943-48cb-45bb-b8e4-6cb23aa388d7,0.9375,530df943-48cb-45bb-b8e4-6cb23aa388d7,Schwarz Diez,Frei,Industriestr.,4-6,65582,Diez,50.374451,8.038044,2014-03-18T16:45:31.000+01:00,{}
a03013df-2fd7-4530-95f3-1037b2a493f4,1.0,a03013df-2fd7-4530-95f3-1037b2a493f4,AVIA Tankstelle,AVIA,Passauer Straße,41,94133,Röhrnbach,48.7342,13.52341,2014-03-18T16:45:31.000+01:00,"\"{\"\"openingTimes\"\":[{\"\"applicable_days\"\":31"
9e84909e-d363-46a8-a1c7-a52a6c21744e,1.0,9e84909e-d363-46a8-a1c7-a52a6c21744e,Fürmetz Tank GmbH,,Gewerbepark-Süd,1,84416,Taufkirchen,48.32766,12.12613,2020-10-20T00:01:15.000+02:00,{}
5978885a-ca1e-4849-ae23-d6ea50b60b25,0.84375,5978885a-ca1e-4849-ae23-d6ea50b60b25,Raisa eG,Raiffeisen,Dorfstr.,22,21745,Hemmoor-Westersode,53.70143,9.114361,2014-03-18T16:45:31.000+01:00,{}
71a018c6-dfc4-4c59-84ec-893836aa46e4,0.6896551724137931,71a018c6-dfc4-4c59-84ec-893836aa46e4,Calpam Tankstelle,Calpam Tankstelle,Hauptstr.,104,49179,Ostercappeln,52.3720703125,8.2076053619385,2014-03-18T16:45:31.000+01:00,{}
047c5222-f58c-48a0-bca2-4eeb7c6f3728,0.9583333333333334,047c5222-f58c-48a0-bca2-4eeb7c6f3728,RAN Station,RAN,Neue Wolterdinger Str.,26,78166,Donaueschingen,47.9569,8.48436,2014-03-18T16:45:31.000+01:00,"\"{\"\"overrides\"\":[{\"\"startp\"\":\"\"2024-12-31 07:00\"\""
28131a8e-7a0d-494b-aa2d-814862fcd3ec,0.85,28131a8e-7a0d-494b-aa2d-814862fcd3ec,bft Tankstelle,bft,Heikendorfer Weg,79,24248,Mönkeberg,54.3489,10.1879,2014-03-18T16:45:31.000+01:00,"\"{\"\"overrides\"\":[{\"\"startp\"\":\"\"2024-12-31 07:00\"\""
ce8820a8-1968-404c-9072-fd3a32d7c61d,0.9259259259259259,ce8820a8-1968-404c-9072-fd3a32d7c61d,TotalEnergies Autohof Hirschberg,TotalEnergies Autohof,Goldbeckstr.,1,69493,Hirschberg,49.507398,8.636922,2014-03-18T16:45:31.000+01:00,{}
b85b925e-1c85-4f55-b294-f57158b3ba78,0.7272727272727273,b85b925e-1c85-4f55-b294-f57158b3ba78,Raiffeisen Ostwestfalen-Lippe AG,Raiffeisen,Lehmbrink,38 - 40,32825,Blomberg,51.938442,9.098479,2014-03-18T16:45:31.000+01:00,{}
1d7526ce-4398-494f-8b7b-239b13b43964,0.9130434782608695,1d7526ce-4398-494f-8b7b-239b13b43964,OIL! Tankstelle Kiel,OIL!,Brunswiker Straße 46-48,,24105,Kiel,54.329,10.1365,2014-03-18T16:45:31.000+01:00,"\"{\"\"openingTimes\"\":[{\"\"applicable_days\"\":192"
4163475b-8cca-4178-b116-0b92c0de56f7,0.8372093023255814,4163475b-8cca-4178-b116-0b92c0de56f7,Shell Timmendorfer Strand Luebecker Str. 18,Shell,Luebecker Str.,18,23669,Timmendorfer Strand,53.994513,10.771932,2014-03-18T16:45:31.000+01:00,"\"{\"\"openingTimes\"\":[{\"\"applicable_days\"\":224"
078be3f4-451a-4f31-8649-5eba8dbc406f,0.5952380952380952,078be3f4-451a-4f31-8649-5eba8dbc406f,Shell Neuenstein Im Biegen,Shell,Im Biegen,,36286,Neuenstein,50.91318,9.576846,2014-03-18T16:45:31.000+01:00,{}
10b113ea-8597-402d-8ebd-795c0af4c21a,0.7931034482758621,10b113ea-8597-402d-8ebd-795c0af4c21a,Shell Bonn Hermann-Wandersleb-Ring,Shell,Hermann-Wandersleb-Ring,,53121,Bonn,50.726153,7.067438,2014-03-18T16:45:31.000+01:00,{}
f29deb06-c567-4694-9c20-29a9b91912cf,0.9375,f29deb06-c567-4694-9c20-29a9b91912cf,Aral Tankstelle,ARAL,Oppelner Straße,1,31167,Bockenem,52.001907,10.135185,2014-03-18T16:45:31.000+01:00,{}
f0934777-ee80-44e6-85b3-4a2cc48ee43c,0.896551724137931,f0934777-ee80-44e6-85b3-4a2cc48ee43c,Aral Tankstelle,ARAL,Röddenauer Straße,31,35066,Frankenberg,51.058243,8.78391,2014-03-18T16:45:31.000+01:00,{}
0738d58f-63db-4b35-8c77-3d8a062f115e,0.7878787878787878,0738d58f-63db-4b35-8c77-3d8a062f115e,Aral Tankstelle,ARAL,Bötzinger Straße,19,79111,Freiburg im Breisgau,47.99183,7.789029,2022-10-06T06:01:17.000+02:00,"\"{\"\"openingTimes\"\":[{\"\"applicable_days\"\":127"
86f4e629-3746-4f9f-8cf9-989cf6367afa,0.8484848484848485,86f4e629-3746-4f9f-8cf9-989cf6367afa,Aral Tankstelle,ARAL,Brehmstraße,90,40239,Düsseldorf,51.247917,6.801548,2014-03-18T16:45:31.000+01:00,"\"{\"\"openingTimes\"\":[{\"\"applicable_days\"\":127"
01d2bebb-be6d-4c1e-99ee-cdc28d7fcbd6,0.8787878787878788,01d2bebb-be6d-4c1e-99ee-cdc28d7fcbd6,Aral Tankstelle,ARAL,Max-Planck-Straße,18,21423,Winsen,53.33932,10.219539,2014-03-18T16:45:31.000+01:00,{}
4f25255e-9624-42e0-a190-3c680abd4108,0.7428571428571429,4f25255e-9624-42e0-a190-3c680abd4108,Aral Tankstelle,ARAL,BAB A,10 Suedseite,15749,Brusendorf,52.315624,13.493713,2014-03-18T16:45:31.000+01:00,{}
e2280916-d176-45bc-a239-6669b1cd10e9,0.7272727272727273,e2280916-d176-45bc-a239-6669b1cd10e9,Aral Tankstelle,ARAL,Neue Schichtstraße,16,09366,Niederdorf,50.724487,12.778826,2014-03-18T16:45:31.000+01:00,{}
8b04490b-08f6-417f-bc36-393cf25eebf6,0.64,8b04490b-08f6-417f-bc36-393cf25eebf6,SB Wasch & Tank GmbH & Co. KG,SB,Am Rechtsrain,2,35764,Sinn,50.654991,8.321573,2014-03-18T16:45:31.000+01:00,{}
8b7d95f7-689c-4436-88b5-6d9c9f8b4b11,0.9411764705882353,8b7d95f7-689c-4436-88b5-6d9c9f8b4b11,SB Gronau Gronauer Str. 90-94,SB,Gronauer Str.,90-94,48599,Gronau,52.1837,7.03332,2014-03-18T16:45:31.000+01:00,"\"{\"\"openingTimes\"\":[{\"\"applicable_days\"\":192"
b63d9d27-e74f-4c6e-8dfe-aa7784bba6f7,0.8214285714285714,b63d9d27-e74f-4c6e-8dfe-aa7784bba6f7,TotalEnergies Duesseldorf,TotalEnergies,Forststr.,15,40597,Duesseldorf,51.168945,6.875034,2014-03-18T16:45:31.000+01:00,"\"{\"\"openingTimes\"\":[{\"\"applicable_days\"\":31"
e1a15081-24e8-9107-e040-0b0a3dfe563c,0.8,e1a15081-24e8-9107-e040-0b0a3dfe563c,"Geesthacht, Geesthachter Str. 107",HEM,Geesthachter Str.,107,21502,Geesthacht,53.44868,10.360385,2014-03-18T16:45:31.000+01:00,"\"{\"\"openingTimes\"\":[{\"\"applicable_days\"\":31"
4d6d5845-a468-4d42-b176-d4471a33776d,0.9666666666666667,4d6d5845-a468-4d42-b176-d4471a33776d,AVIA XPress,AVIA XPress,Öschelbronner Str.,31,71131,Jettingen,48.5641264,8.78847058,2019-12-20T00:01:20.000+01:00,{}
005056a9-4231-1eed-9edd-fff7eccec466,1.0,005056a9-4231-1eed-9edd-fff7eccec466,ENI,AGIP ENI,Köschinger Forst West,,85120,Hepberg,48.838169,11.468576,2023-05-11T18:01:21.000+02:00,{}
d74ac593-addf-44cf-9e13-15d3aa1a9baf,0.8409090909090909,d74ac593-addf-44cf-9e13-15d3aa1a9baf,"Bremen (28777), Rönnebecker Str. 28b",team,Rönnebecker Str.,28b,28777,Bremen,53.1852,8.55638,2014-12-13T00:00:01.000+01:00,"\"{\"\"overrides\"\":[{\"\"startp\"\":\"\"2024-12-31 04:00\"\""
8d7ce9eb-ff7c-4a99-97ba-64bcbc6c71db,1.0,8d7ce9eb-ff7c-4a99-97ba-64bcbc6c71db,TS Weyersbusch,A Energie,Frankfurter Straße,7,57635,Weyerbusch,50.71426,7.55638,2014-03-18T16:45:31.000+01:00,"\"{\"\"openingTimes\"\":[{\"\"applicable_days\"\":31"
8f2e54d9-12b2-4f42-a012-6942c57688e9,0.76,8f2e54d9-12b2-4f42-a012-6942c57688e9,Esso Station,ESSO,Brucker Str. 79,"",85221,Dachau,48.257635,11.419602,2014-03-18T16:45:31.000+01:00,"\"{\"\"openingTimes\"\":[{\"\"applicable_days\"\":31"
a9c1d318-d7ad-4083-a40a-9b3addd64784,0.7755102040816326,a9c1d318-d7ad-4083-a40a-9b3addd64784,Esso Tankstelle,ESSO,BRABECKSTR. 155,"",30539,HANNOVER,52.343697,9.827638,2014-03-18T16:45:31.000+01:00,"\"{\"\"openingTimes\"\":[{\"\"applicable_days\"\":31"
fa1550e0-7e5a-46d6-aa56-035b22e24c46,0.75,fa1550e0-7e5a-46d6-aa56-035b22e24c46,Esso Tankstelle,ESSO,HAUPTSTR. 22,"",82380,PEISSENBERG,47.802602,11.077094,2014-03-18T16:45:31.000+01:00,"\"{\"\"openingTimes\"\":[{\"\"applicable_days\"\":31"
e6282bf9-9287-4d36-9138-620bd1cf3b40,0.78,e6282bf9-9287-4d36-9138-620bd1cf3b40,Esso Tankstelle,ESSO,WEIMARISCHE STR. 36,"",99099,ERFURT,50.973431,11.054491,2014-03-18T16:45:31.000+01:00,"\"{\"\"openingTimes\"\":[{\"\"applicable_days\"\":31"
f7ead1e3-b110-460a-a5d7-a93bd69d8a7b,0.6428571428571429,f7ead1e3-b110-460a-a5d7-a93bd69d8a7b,Esso Tankstelle,ESSO,HAGENER STR. 136,"",58099,HAGEN,51.383945,7.479012,2014-03-18T16:45:31.000+01:00,"\"{\"\"openingTimes\"\":[{\"\"applicable_days\"\":31"
eec977bb-7c5e-45f2-b04d-9c85bf5852a0,0.9523809523809523,eec977bb-7c5e-45f2-b04d-9c85bf5852a0,Esso Tankstelle,ESSO,MAX-EYTH-STR. 1,"",73479,ELLWANGEN,48.956235,10.182571,2014-03-18T16:45:31.000+01:00,{}
10272cb4-9da5-11ef-8aa0-005056a27fa7,0.6585365853658537,10272cb4-9da5-11ef-8aa0-005056a27fa7,CLASSIC Wellingholzhausen,CLASSIC Tankcenter Albers,Wellingholzhausener Straße,89,49326,Melle,52.16617,8.26779,2024-12-18T22:48:39.000+01:00,{}
66e8ddfa-4d7e-44b7-9dbc-81c8a1c88034,0.6666666666666666,66e8ddfa-4d7e-44b7-9dbc-81c8a1c88034,Pinoil,Pinoil,Hauptstraße.,34,86459,Gessertshausen,48.329372,10.73033,2014-03-18T16:45:31.000+01:00,"\"{\"\"openingTimes\"\":[{\"\"applicable_days\"\":64"
e1a15081-2591-9107-e040-0b0a3dfe563c,0.75,e1a15081-2591-9107-e040-0b0a3dfe563c,"Rimbach, Schloßstr. 57",HEM,Schloßstr.,57,64668,Rimbach,49.6162,8.7559,2014-03-18T16:45:31.000+01:00,"\"{\"\"openingTimes\"\":[{\"\"applicable_days\"\":31"
51d4b4b5-a095-1aa0-e100-80009459e03a,0.7884615384615384,51d4b4b5-a095-1aa0-e100-80009459e03a,Supermarkt-Tankstelle HOLZMINDEN BUELTE 4,Supermarkt-Tankstelle,BUELTE,4,37603,HOLZMINDEN,51.84149,9.46547,2014-03-18T16:45:31.000+01:00,"\"{\"\"openingTimes\"\":[{\"\"applicable_days\"\":63"
005056ba-7cb6-1ed2-bceb-55dc09ec4d15,0.6097560975609756,005056ba-7cb6-1ed2-bceb-55dc09ec4d15,star Tankstelle,STAR,Hornsche Straße,43,32756,Detmold,51.93048,8.88276,2014-03-18T16:45:31.000+01:00,"\"{\"\"overrides\"\":[{\"\"startp\"\":\"\"2024-12-31 06:00\"\""
005056ba-7cb6-1ed2-bceb-9c4a8801ed3c,0.8529411764705882,005056ba-7cb6-1ed2-bceb-9c4a8801ed3c,star Tankstelle,STAR,Grevener Damm,207,48282,Emsdetten,52.156121,7.552345,2014-03-18T16:45:31.000+01:00,"\"{\"\"overrides\"\":[{\"\"startp\"\":\"\"2024-12-31 07:00\"\""
51d4b5a5-a095-1aa0-e100-80009459e03a,0.7297297297297297,51d4b5a5-a095-1aa0-e100-80009459e03a,JET HENSTEDT-ULZBURG HAMBURGER STR. 48,JET,HAMBURGER STR.,48,24558,HENSTEDT-ULZBURG,53.78584,9.9773,2014-03-18T16:45:31.000+01:00,"\"{\"\"openingTimes\"\":[{\"\"applicable_days\"\":31"
cd8ba6a6-98cd-1ed7-9c96-62f6e1b797be,0.8846153846153846,cd8ba6a6-98cd-1ed7-9c96-62f6e1b797be,JET OSNABRUECK PAGENSTECHERSTRASSE 75,JET,PAGENSTECHERSTRASSE,75,49090,OSNABRUECK,52.29074,8.0239,2017-07-24T23:30:07.000+02:00,{}
cd8ba6a6-1d86-1ed7-9aff-82fb2a3c9a7d,0.9047619047619048,cd8ba6a6-1d86-1ed7-9aff-82fb2a3c9a7d,JET DRESDEN BREITSCHEIDSTR. 34,JET,BREITSCHEIDSTR.,34,01237,DRESDEN,51.01624,13.8087,2017-07-18T23:30:06.000+02:00,"\"{\"\"openingTimes\"\":[{\"\"applicable_days\"\":255"
c5c38c4f-9d55-4904-93c8-1be19e28cc90,0.8214285714285714,c5c38c4f-9d55-4904-93c8-1be19e28cc90,"Kolbermoor, Rosenheimer Str.",HEM,Rosenheimer Str.,60,83059,Kolbermoor,47.84908,12.07719,2016-09-20T00:00:01.000+02:00,"\"{\"\"openingTimes\"\":[{\"\"applicable_days\"\":127"
ffac2388-1b8f-4bd2-7145-7a32d8eea81a,0.7837837837837838,ffac2388-1b8f-4bd2-7145-7a32d8eea81a,Heinrich Albers OHG,,Alte Wieke,44,26632,Ihlow,53.4001,7.43692,2014-03-18T16:45:31.000+01:00,"\"{\"\"overrides\"\":[{\"\"startp\"\":\"\"2024-12-31 05:30\"\""
d9879018-c48a-415e-a944-0c67c9618b36,0.6857142857142857,d9879018-c48a-415e-a944-0c67c9618b36,M1 Linden,M1,Davenstedter Straße,128a,30453,Hannover-Linden,52.36546753465,9.689943865169,2014-03-18T16:45:31.000+01:00,{}
464388fc-cc1f-4770-a17a-4cb3d5d47384,0.6388888888888888,464388fc-cc1f-4770-a17a-4cb3d5d47384,AVIA Tankstelle,AVIA,Hauptstraße,111,73061,Ebersbach,48.71795,9.53739,2022-07-27T00:01:18.000+02:00,"\"{\"\"openingTimes\"\":[{\"\"applicable_days\"\":31"
f9f9c9d2-49ae-4153-20ea-8e445a883789,0.6666666666666666,f9f9c9d2-49ae-4153-20ea-8e445a883789,Gulf Schönbrunn,GULF,Gewerbegebiet,171,07929,Saalburg-Ebersdorf,50.4689,11.6535,2014-03-18T16:45:31.000+01:00,"\"{\"\"openingTimes\"\":[{\"\"applicable_days\"\":31"
d82c7668-810a-4dd2-b73e-41c418fce82f,0.8,d82c7668-810a-4dd2-b73e-41c418fce82f,Bft Tankstelle Autohaus Wehle e.k,BFT,Freudenstaedter Str.,25,72178,Waldachtal-Salzstetten,48.49022,8.59959,2014-03-18T16:45:31.000+01:00,{}
01ddc2f2-35ca-4a02-a47c-190ebabe558b,0.4,01ddc2f2-35ca-4a02-a47c-190ebabe558b,Winkler-Bürstadt,Winkler 24h,Nibelungenstraße,203,68642,Bürstadt,49.64538,8.47796,2014-04-05T00:00:01.000+02:00,{}
628c2c08-844f-442e-9df4-a957799e71f0,0.75,628c2c08-844f-442e-9df4-a957799e71f0,AVIA Tankstelle,AVIA,Borkener Straße,44,46348,Raesfeld,51.773695432073,6.8383003805747,2014-03-18T16:45:31.000+01:00,"\"{\"\"openingTimes\"\":[{\"\"applicable_days\"\":31"
252c6f28-9529-47c8-871e-6755a832b20f,0.8947368421052632,252c6f28-9529-47c8-871e-6755a832b20f,AGROA Raiffeisen eG,Raiffeisen,Neulandstr.,3,74889,Sinsheim,49.24913,8.877777,2014-03-18T16:45:31.000+01:00,{}
4b412eb2-6f82-4d6f-bc99-8a59b1287691,0.8620689655172413,4b412eb2-6f82-4d6f-bc99-8a59b1287691,RLB Raiffeisen-Landbund eG,Raiffeisen-Landbund eG,Friedewalder Str.,54,32469,Petershagen,52.36205,8.850941,2014-03-18T16:45:31.000+01:00,{}
d406fd27-992b-4ae7-97e4-25d0e66ed1dd,0.967741935483871,d406fd27-992b-4ae7-97e4-25d0e66ed1dd,Shell Hamburg Koenigstr. 22,Shell,Koenigstr.,22,22767,Hamburg,53.548551,9.944134,2014-03-18T16:45:31.000+01:00,{}
713fffa5-3e2b-4c99-b1b8-50d8d7da44bf,0.8181818181818182,713fffa5-3e2b-4c99-b1b8-50d8d7da44bf,Shell Villingen-Schwenningen Am Krebsgraben 20,Shell,Am Krebsgraben,20,78048,Villingen-Schwenningen,48.069602,8.442713,2014-03-18T16:45:31.000+01:00,"\"{\"\"openingTimes\"\":[{\"\"applicable_days\"\":192"
62a8e2c0-abf3-4716-9cd9-d145e112c585,0.6875,62a8e2c0-abf3-4716-9cd9-d145e112c585,Shell Berlin Rudower Str. 102,Shell,Rudower Str.,102,12351,Berlin,52.435962,13.465448,2014-03-18T16:45:31.000+01:00,"\"{\"\"openingTimes\"\":[{\"\"applicable_days\"\":224"
fa341da4-2b0a-45a6-83b8-29d5d97d7755,0.7804878048780488,fa341da4-2b0a-45a6-83b8-29d5d97d7755,Shell Geislingen An Der Steige Grube-Karl-Str. 10,Shell,Grube-Karl-Str.,10,73312,Geislingen An Der Steige,48.613983,9.813508,2014-03-18T16:45:31.000+01:00,{}
d4a1a6bb-9c3b-4894-923d-556bee1d452a,0.6888888888888889,d4a1a6bb-9c3b-4894-923d-556bee1d452a,Shell Solingen Neuenkamper Str. 35,Shell,Neuenkamper Str.,35,42657,Solingen,51.151916,7.05716,2014-03-18T16:45:31.000+01:00,"\"{\"\"openingTimes\"\":[{\"\"applicable_days\"\":192"
707f4b19-8664-4200-a9e7-512edd91a158,0.84375,707f4b19-8664-4200-a9e7-512edd91a158,Aral Tankstelle,ARAL,Bergstr.,121,01217,Dresden,51.019833,13.730003,2014-03-18T16:45:31.000+01:00,{}
1935b69d-f811-48ee-97be-c0987cfaad92,0.6944444444444444,1935b69d-f811-48ee-97be-c0987cfaad92,Aral Tankstelle,ARAL,An der B,14/Sulzbach.-Eck,71560,Sulzbach,49.005062,9.501942,2014-03-18T16:45:31.000+01:00,"\"{\"\"openingTimes\"\":[{\"\"applicable_days\"\":64"
f027019a-34a2-45e8-b051-9270f8634cf7,0.7368421052631579,f027019a-34a2-45e8-b051-9270f8634cf7,Aral Tankstelle,ARAL,Haaner Straße,77,40699,Erkrath,51.204407,6.97023,2014-03-18T16:45:31.000+01:00,"\"{\"\"openingTimes\"\":[{\"\"applicable_days\"\":64"
cd1820d6-93a5-420c-b229-a012c1dd83d6,0.8333333333333334,cd1820d6-93a5-420c-b229-a012c1dd83d6,Aral Tankstelle,ARAL,Stuttgarter Straße,67,71384,Weinstadt,48.80533,9.381961,2014-03-18T16:45:31.000+01:00,"\"{\"\"openingTimes\"\":[{\"\"applicable_days\"\":64"
d28d8296-677f-4e5c-b8dd-ffda6f52f563,1.0,d28d8296-677f-4e5c-b8dd-ffda6f52f563,Tankcenter Rodgau,Tankcenter,Hainburgstr.,51,63110,Rodgau,49.999493,8.881054,2014-03-18T16:45:31.000+01:00,"\"{\"\"openingTimes\"\":[{\"\"applicable_days\"\":31"
77acaab0-884b-4f19-918b-5c68dfb61159,0.8095238095238095,77acaab0-884b-4f19-918b-5c68dfb61159,Sabine Vehlken,Westfalen,Lippramsdorfer Str.,6,46286,Dorsten,51.7604,7.00026,2014-03-18T16:45:31.000+01:00,"\"{\"\"openingTimes\"\":[{\"\"applicable_days\"\":32"
928b9342-c698-4988-8a22-e52563402989,0.8787878787878788,928b9342-c698-4988-8a22-e52563402989,Esso Tankstelle,ESSO,AN DER B50,"",55599,GAU-BICKELHEIM,49.833903,8.002183,2014-03-18T16:45:31.000+01:00,{}
92bd6f85-2ad5-43cb-a65f-aa8d24234794,0.8518518518518519,92bd6f85-2ad5-43cb-a65f-aa8d24234794,AGRAVIS Niedersachsen Süd GmbH,Raiffeisen,Raiffeisenstraße,1-2,37136,Seulingen,51.54047,10.16301,2014-03-18T16:45:31.000+01:00,{}
00061360-0010-4444-8888-acdc00000010,0.9130434782608695,00061360-0010-4444-8888-acdc00000010,"Bergler Mineralöl GmbH, Sulzbach",Bergler,Eisenhämmer Str.,15,92237,Sulzbach-Rosenberg,49.49405670166,11.77502155304,2014-03-18T16:45:31.000+01:00,{}
2f792a10-f600-440d-8016-1c1ff17611d9,0.631578947368421,2f792a10-f600-440d-8016-1c1ff17611d9,TotalEnergies Niederaudorf,TotalEnergies,Rosenheimer Str.,116,83080,Niederaudorf,47.66748,12.16909,2015-03-24T00:00:01.000+01:00,"\"{\"\"openingTimes\"\":[{\"\"applicable_days\"\":31"
d648caf3-f917-4cd8-9bc0-20c1d1cc1ffd,0.8444444444444444,d648caf3-f917-4cd8-9bc0-20c1d1cc1ffd,Markttankstelle,Tankstelle,Alter Postweg,125,26133,Oldenburg,53.1035,8.21114,2014-03-18T16:45:31.000+01:00,"\"{\"\"overrides\"\":[{\"\"startp\"\":\"\"2024-12-30 23:00\"\""
3430aa1f-1b47-40d8-8119-679cbb9375de,0.6666666666666666,3430aa1f-1b47-40d8-8119-679cbb9375de,AVIA Ottenhöfen,AVIA,Ruhesteinstr.,5,77883,Ottenhöfen,48.5681,8.1432,2014-03-18T16:45:31.000+01:00,"\"{\"\"openingTimes\"\":[{\"\"applicable_days\"\":31"
cd8b8686-fa3e-1ed5-9e86-d6dc95bdc4b0,0.8888888888888888,cd8b8686-fa3e-1ed5-9e86-d6dc95bdc4b0,JET CUXHAVEN WESTERWISCHWEG 103,JET,WESTERWISCHWEG,103,27474,CUXHAVEN,53.8594,8.68277,2015-10-22T00:00:01.000+02:00,"\"{\"\"openingTimes\"\":[{\"\"applicable_days\"\":63"
51d4b537-a095-1aa0-e100-80009459e03a,0.6470588235294118,51d4b537-a095-1aa0-e100-80009459e03a,JET LUDWIGSBURG STEINBEISSTR. 12,JET,STEINBEISSTR.,12,71636,LUDWIGSBURG,48.88801,9.16659,2014-03-18T16:45:31.000+01:00,"\"{\"\"openingTimes\"\":[{\"\"applicable_days\"\":31"
d712c7cc-a203-4909-9a23-e0bc99b8f36b,0.875,d712c7cc-a203-4909-9a23-e0bc99b8f36b,Elan Nienburg,ELAN,Verdener Landstr.,48,31582,Nienburg,52.652348,9.218013,2014-03-18T16:45:31.000+01:00,"\"{\"\"openingTimes\"\":[{\"\"applicable_days\"\":31"
e2c33611-3c9b-4609-89e3-4c63c976fcb7,1.0,e2c33611-3c9b-4609-89e3-4c63c976fcb7,RWG Bissel-Halenhorst eG,RWG Bissel-Halenhorst eG,Zeppelinring,10,26197,Grossenkneten / OT Ahlhorn,52.8984468,8.1993134,2014-03-18T16:45:31.000+01:00,{}
ec1890a7-adcb-4e11-daa6-54ecf4cc49f9,1.0,ec1890a7-adcb-4e11-daa6-54ecf4cc49f9,Tankautomat Hafenstr.,KÖHN & PLAMBECK,Hafenstraße,0,26919,Brake,53.32803,8.482716,2021-06-15T10:01:16.000+02:00,"\"{\"\"overrides\"\":[{\"\"startp\"\":\"\"2024-12-31 00:00\"\""
341b449e-a844-4b20-afac-ee10ff0f4cfd,0.6458333333333334,341b449e-a844-4b20-afac-ee10ff0f4cfd,bft Gebesee,bft,Siedlungsweg,2,99189,Gebesee,51.11029,10.92986,2014-03-18T16:45:31.000+01:00,"\"{\"\"overrides\"\":[{\"\"startp\"\":\"\"2024-12-31 05:00\"\""
a751c854-6c34-4412-93c8-4207da7848c2,0.6666666666666666,a751c854-6c34-4412-93c8-4207da7848c2,ENI,AGIP ENI,Huettenfelder Str.,46,69502,Hemsbach,49.593016228151,8.639710609441,2014-03-20T00:00:01.000+01:00,"\"{\"\"openingTimes\"\":[{\"\"applicable_days\"\":63"
099135a2-6ee7-4f1f-963f-f634f49812d0,0.5714285714285714,099135a2-6ee7-4f1f-963f-f634f49812d0,Raiffeisenagrar Bippen,Raiffeisenagrar - Zweigbetrieb der VR Bank eG Osnabrücker Nordland,Bahnhofstr.,13,49626,Bippen,52.0,7.0,2023-12-31T00:46:41.000+01:00,{}
85bf4036-d4f0-41fb-8cea-cf0b4219896b,0.8620689655172413,85bf4036-d4f0-41fb-8cea-cf0b4219896b,Fricke,AVIA,Werner Str.,182,59192,Bergkamen,51.6239,7.65803,2014-03-18T16:45:31.000+01:00,"\"{\"\"openingTimes\"\":[{\"\"applicable_days\"\":32"
4a5d5d54-b70b-408e-9a78-27ce7eda2c9c,0.9130434782608695,4a5d5d54-b70b-408e-9a78-27ce7eda2c9c,Fricke,Tankpoint,Kuhlenweg,2,31241,Ilsede,52.284,10.2291,2014-03-18T16:45:31.000+01:00,{}
cf9558cf-22b3-4474-a4d9-0845286c085e,0.8518518518518519,cf9558cf-22b3-4474-a4d9-0845286c085e,team Tankstelle Munster,team,Zum Sprötzloh,4,29633,Munster,52.988,10.109,2014-03-18T16:45:31.000+01:00,{}
8f4862af-553c-4a2c-a064-4c77678b51b3,0.8571428571428571,8f4862af-553c-4a2c-a064-4c77678b51b3,Tankstelle am E-Center,24h TANKEN,Industriestr.,1,89407,Dillingen,48.58857,10.515878,2014-03-18T16:45:31.000+01:00,{}
04728513-5433-4708-956b-1840be0ccc9e,0.8571428571428571,04728513-5433-4708-956b-1840be0ccc9e,Shell Moers Neukirchener Str. 3,Shell,Neukirchener Str.,3,47447,Moers,51.418137,6.593684,2018-08-23T23:30:07.000+02:00,"\"{\"\"overrides\"\":[{\"\"startp\"\":\"\"2025-01-01 10:00\"\""
4a870337-2727-4b7b-80bc-6588e33d1a3e,0.7317073170731707,4a870337-2727-4b7b-80bc-6588e33d1a3e,Aral Tankstelle,ARAL,Schiffbeker Weg,228,22119,Hamburg,53.56198,10.119775,2014-03-18T16:45:31.000+01:00,{}
c25f20db-eeb3-42a6-9e15-e65c145c84aa,0.9,c25f20db-eeb3-42a6-9e15-e65c145c84aa,Aral Tankstelle,ARAL,Mülheimer Heide,1,53945,Blankenheim,50.44996,6.667896,2014-03-18T16:45:31.000+01:00,{}
a3d15cfe-cc6e-4c5c-bc7a-dd29d986781d,0.7631578947368421,a3d15cfe-cc6e-4c5c-bc7a-dd29d986781d,Aral Tankstelle,ARAL,Gosbertstraße,24,72108,Rottenburg,48.49567,8.813009,2014-03-18T16:45:31.000+01:00,"\"{\"\"openingTimes\"\":[{\"\"applicable_days\"\":64"
4aedf6e7-f5c4-4fea-b69e-d06c22bf859c,0.8108108108108109,4aedf6e7-f5c4-4fea-b69e-d06c22bf859c,Aral Tankstelle,ARAL,Am Verteilerkreis Westsei,,50968,Köln,50.89209,6.966327,2014-03-18T16:45:31.000+01:00,{}
3b22a7f2-fcc1-4730-a7b7-b50095fd37b7,1.0,3b22a7f2-fcc1-4730-a7b7-b50095fd37b7,"Aral Tankstelle, BAT KÖSCHINGER FORST OST",ARAL,A,9,85120,Hepberg,48.836147,11.471164,2014-03-18T16:45:31.000+01:00,{}
efe25e49-6a18-4961-8cf2-43462926a37f,0.8076923076923077,efe25e49-6a18-4961-8cf2-43462926a37f,Aral Tankstelle,ARAL,An der Autobahn,1,29690,Buchholz/Aller,52.67381,9.689094,2014-03-18T16:45:31.000+01:00,{}
33907b60-1356-4c73-b8af-be64c12681ba,1.0,33907b60-1356-4c73-b8af-be64c12681ba,Aral Tankstelle,ARAL,Huchtinger Heerstraße,4,28259,Bremen,53.05378,8.740779,2014-03-18T16:45:31.000+01:00,{}
c6c45814-807d-4019-9d09-94ff9fd41ec5,0.8181818181818182,c6c45814-807d-4019-9d09-94ff9fd41ec5,Aral Tankstelle,ARAL,Friedrichstraße,57,79618,Rheinfelden,47.562824,7.792269,2014-03-18T16:45:31.000+01:00,{}
e5892417-0beb-415f-9d20-d8141a7cb90c,0.6944444444444444,e5892417-0beb-415f-9d20-d8141a7cb90c,Aral Tankstelle,ARAL,Ernestinenstraße,157,45141,Essen,51.467785,7.045453,2014-03-18T16:45:31.000+01:00,{}
28724215-c7cb-4f78-bea2-8cd5b2d7b954,0.8518518518518519,28724215-c7cb-4f78-bea2-8cd5b2d7b954,Aral Tankstelle,ARAL,Augustenstraße,88,06493,Harzgerode,51.634598,11.147129,2014-03-18T16:45:31.000+01:00,"\"{\"\"openingTimes\"\":[{\"\"applicable_days\"\":96"
53343992-d830-4613-9e8b-f826c541e72c,0.8571428571428571,53343992-d830-4613-9e8b-f826c541e72c,Aral Tankstelle,ARAL,Konrad-Adenauer-Straße,14,55218,Ingelheim,49.97907,8.05402,2014-03-18T16:45:31.000+01:00,"\"{\"\"openingTimes\"\":[{\"\"applicable_days\"\":127"
fa04e5c7-2c69-4c07-ac0e-4c40dc1b5e2d,0.7142857142857143,fa04e5c7-2c69-4c07-ac0e-4c40dc1b5e2d,Aral Tankstelle,ARAL,Talstraße,10,58332,Schwelm,51.292953,7.28626,2014-03-18T16:45:31.000+01:00,{}
86dedb16-0695-48bf-81e0-21962df8e78d,0.8529411764705882,86dedb16-0695-48bf-81e0-21962df8e78d,Aral Tankstelle,ARAL,Gneversdorfer Weg,12-14,23570,Lübeck,53.95933,10.861492,2014-03-18T16:45:31.000+01:00,{}
5a456548-a01c-4f0e-93c1-61ed13c770ca,0.8529411764705882,5a456548-a01c-4f0e-93c1-61ed13c770ca,Aral Tankstelle,ARAL,Aiblinger Au,52 a,83059,Kolbermoor,47.851147,12.017452,2014-03-18T16:45:31.000+01:00,{}
37c10c86-b6bf-4674-84a3-b5005adb896e,0.78125,37c10c86-b6bf-4674-84a3-b5005adb896e,Q1 Tankstelle,Q1,Buchholzer Straße,36 a,09487,Schlettau,50.5586,12.9603,2014-03-18T16:45:31.000+01:00,"\"{\"\"overrides\"\":[{\"\"startp\"\":\"\"2024-12-31 07:00\"\""
566514df-247c-44a2-8e08-9ef282fc1aea,0.9166666666666666,566514df-247c-44a2-8e08-9ef282fc1aea,Sb Bremen Waller-Heerst. 259,SB,Waller-Heerst.,259,28219,Bremen,53.1077,8.77568,2014-03-18T16:45:31.000+01:00,"\"{\"\"openingTimes\"\":[{\"\"applicable_days\"\":255"
629d2422-c1a1-4ca5-84ed-79a6d68145db,0.7692307692307693,629d2422-c1a1-4ca5-84ed-79a6d68145db,T Anhausen,T,Neuwieder Str.,5,56584,Anhausen,50.496519,7.552689,2014-03-18T16:45:31.000+01:00,"\"{\"\"openingTimes\"\":[{\"\"applicable_days\"\":63"
e1a15081-25c4-9107-e040-0b0a3dfe563c,0.8333333333333334,e1a15081-25c4-9107-e040-0b0a3dfe563c,"Schwerin, Wismarsche Str. 376",HEM,Wismarsche Str.,376,19055,Schwerin,53.650819,11.405273,2014-03-18T16:45:31.000+01:00,"\"{\"\"openingTimes\"\":[{\"\"applicable_days\"\":95"
e1a15081-2614-9107-e040-0b0a3dfe563c,0.6666666666666666,e1a15081-2614-9107-e040-0b0a3dfe563c,"Goslar, Okerstr. 12",HEM,Okerstr.,12,38640,Goslar,51.912685,10.440884,2014-03-18T16:45:31.000+01:00,"\"{\"\"openingTimes\"\":[{\"\"applicable_days\"\":31"
e1a15081-2633-9107-e040-0b0a3dfe563c,0.7307692307692307,e1a15081-2633-9107-e040-0b0a3dfe563c,"Lünen, Münsterstr. 93",HEM,Münsterstr.,93,44534,Lünen,51.621094,7.537954,2014-03-18T16:45:31.000+01:00,"\"{\"\"openingTimes\"\":[{\"\"applicable_days\"\":127"
43d2a2a6-c1a9-4313-baca-b75684e877f6,0.0,43d2a2a6-c1a9-4313-baca-b75684e877f6,RWG Wesermarsch eG,,Raiffeisenstr.,20,26939,Ovelgönne,53.262130737305,8.3109502792358,2014-09-11T00:00:01.000+02:00,{}
1f4f767c-6aa9-4c9c-85eb-2c3a1d71e937,0.8275862068965517,1f4f767c-6aa9-4c9c-85eb-2c3a1d71e937,Esso Station,ESSO,Weißenburger Str. 80,"",91710,Gunzenhausen,49.107985,10.75834,2014-03-18T16:45:31.000+01:00,"\"{\"\"openingTimes\"\":[{\"\"applicable_days\"\":63"
b05f6162-b843-4043-9e21-89aaef58e350,0.84,b05f6162-b843-4043-9e21-89aaef58e350,Esso Tankstelle,ESSO,KURMAINZSTR. 19,"",55126,MAINZ,49.98379,8.177239,2014-03-18T16:45:31.000+01:00,"\"{\"\"openingTimes\"\":[{\"\"applicable_days\"\":63"
2e5d7e45-5a3e-440e-aad4-e1c69db517e5,0.74,2e5d7e45-5a3e-440e-aad4-e1c69db517e5,Esso Tankstelle,ESSO,SINDORFER STR. 37,"",50171,KERPEN,50.876668,6.692819,2014-03-18T16:45:31.000+01:00,"\"{\"\"openingTimes\"\":[{\"\"applicable_days\"\":31"
b8b6039d-5e5f-4768-9f4e-e73123467b4e,0.8888888888888888,b8b6039d-5e5f-4768-9f4e-e73123467b4e,Esso Tankstelle,ESSO,HAUPTSTR. 1,"",91332,HEILIGENSTADT,49.862262,11.175141,2014-03-18T16:45:31.000+01:00,"\"{\"\"openingTimes\"\":[{\"\"applicable_days\"\":31"
aa044cc7-b6da-4116-bddd-e785545a4c0e,0.7884615384615384,aa044cc7-b6da-4116-bddd-e785545a4c0e,Esso Tankstelle,ESSO,NEUSSER STR. 1,"",41542,DORMAGEN,51.11282,6.7753,2014-03-18T16:45:31.000+01:00,{}
538701d2-9cca-4bdf-a6d0-26c978bde274,0.8,538701d2-9cca-4bdf-a6d0-26c978bde274,Esso Tankstelle,ESSO,HOLMMOOR OSTSEITE,"",25451,QUICKBORN,53.716314,9.939607,2014-03-18T16:45:31.000+01:00,{}
10ddac26-a5ba-453d-a761-9ad2f041b2b8,0.84375,10ddac26-a5ba-453d-a761-9ad2f041b2b8,Bft Ludwigsstadt Lauensteiner Straße 79 A,bft,Lauensteiner Straße,79 A,96337,Ludwigsstadt,50.493148,11.379397,2014-03-18T16:45:31.000+01:00,"\"{\"\"openingTimes\"\":[{\"\"applicable_days\"\":192"
8bfd2b19-cc2c-4522-aab2-ab3fb2691807,0.95,8bfd2b19-cc2c-4522-aab2-ab3fb2691807,Sb Soltau Lueneburger Str 112,SB,Lueneburger Str,112,29614,Soltau,52.986971,9.865517,2014-12-02T00:00:01.000+01:00,"\"{\"\"openingTimes\"\":[{\"\"applicable_days\"\":192"
54e1af5e-ef21-4696-5448-75a920dee218,0.88,54e1af5e-ef21-4696-5448-75a920dee218,TAS Gronau,TAS,Kampweg,21,31028,Gronau,52.088141,9.765489,2014-03-18T16:45:31.000+01:00,"\"{\"\"overrides\"\":[{\"\"startp\"\":\"\"2024-12-31 00:05\"\""
c080d550-c6ce-46d2-bc99-af48136c3ada,0.7727272727272727,c080d550-c6ce-46d2-bc99-af48136c3ada,WIESLOCH - SCHWETZINGER STR. 125,AGIP ENI,Schwetzinger Str.,125,69168,Wiesloch,49.291425,8.68419,2014-03-20T00:00:01.000+01:00,"\"{\"\"openingTimes\"\":[{\"\"applicable_days\"\":31"
70844d3a-9ce7-41b5-a8be-305cf6bdef6c,0.8846153846153846,70844d3a-9ce7-41b5-a8be-305cf6bdef6c,Michael Marx,Markant,Hansastr.,45 a,49090,Osnabrück,52.28769,8.03846,2014-03-18T16:45:31.000+01:00,"\"{\"\"openingTimes\"\":[{\"\"applicable_days\"\":31"
52949517-47e1-0cb0-e100-80009459e02c,0.8518518518518519,52949517-47e1-0cb0-e100-80009459e02c,JET MAINZ BARCELONA ALLEE 2,JET,BARCELONA ALLEE,2,55129,MAINZ,49.94851,8.26052,2014-03-18T16:45:31.000+01:00,"\"{\"\"openingTimes\"\":[{\"\"applicable_days\"\":31"
cd8ba6a6-9577-1ee5-a181-12e717e9041d,0.6451612903225806,cd8ba6a6-9577-1ee5-a181-12e717e9041d,JET FREIBURG INGEBORG-KRUMMER-SCHROTH-STR. 33,JET,INGEBORG-KRUMMER-SCHROTH-STR.,33,79106,FREIBURG,48.01545,7.85049,2015-11-06T00:00:01.000+01:00,"\"{\"\"openingTimes\"\":[{\"\"applicable_days\"\":63"
51d4b6f8-a095-1aa0-e100-80009459e03a,0.9047619047619048,51d4b6f8-a095-1aa0-e100-80009459e03a,JET SCHWANEWEDE LANGENBERG 4,JET,LANGENBERG,4,28790,SCHWANEWEDE,53.22514,8.59487,2014-03-18T16:45:31.000+01:00,"\"{\"\"openingTimes\"\":[{\"\"applicable_days\"\":31"
51d4b4be-a095-1aa0-e100-80009459e03a,0.6481481481481481,51d4b4be-a095-1aa0-e100-80009459e03a,JET HANNOVER KARLSRUHER STR. 37,JET,KARLSRUHER STR.,37,30519,HANNOVER,52.32706,9.79247,2014-03-18T16:45:31.000+01:00,"\"{\"\"openingTimes\"\":[{\"\"applicable_days\"\":31"
51d4b712-a095-1aa0-e100-80009459e03a,0.84,51d4b712-a095-1aa0-e100-80009459e03a,JET BREMEN NEUENLANDER STR. 119,JET,NEUENLANDER STR.,119,28201,BREMEN,53.05116,8.80872,2014-03-18T16:45:31.000+01:00,{}
51d4b6b3-a095-1aa0-e100-80009459e03a,0.7368421052631579,51d4b6b3-a095-1aa0-e100-80009459e03a,JET HIDDENHAUSEN HERFORDER STR. 177,JET,HERFORDER STR.,177,32120,HIDDENHAUSEN,52.16112,8.66658,2014-03-18T16:45:31.000+01:00,"\"{\"\"openingTimes\"\":[{\"\"applicable_days\"\":63"
e1a15081-25f2-9107-e040-0b0a3dfe563c,0.8235294117647058,e1a15081-25f2-9107-e040-0b0a3dfe563c,"Unterlüß, Müdener Str. 47",HEM,Müdener Str.,47,29345,Unterlüß,52.844225,10.294575,2014-03-18T16:45:31.000+01:00,"\"{\"\"openingTimes\"\":[{\"\"applicable_days\"\":31"
38eecb7d-a315-4f81-bbd2-19c8fb361221,0.8709677419354839,38eecb7d-a315-4f81-bbd2-19c8fb361221,Shell Aschaffenburg Schillerstr. 58,Shell,Schillerstr.,58,63741,Aschaffenburg,49.987275,9.139978,2014-03-18T16:45:31.000+01:00,{}
13b50ae5-ff10-43c5-a302-b4411991ca16,1.0,13b50ae5-ff10-43c5-a302-b4411991ca16,Shell Wittstock/Dosse Fretzdorfer Steinstrtr. 9,Shell,Fretzdorfer Steinstr.,9,16909,Wittstock/Dosse,53.068464,12.532709,2014-03-18T16:45:31.000+01:00,{}
f4f83c24-a2e5-4b1a-91f9-29781791579e,0.8,f4f83c24-a2e5-4b1a-91f9-29781791579e,TotalEnergies Egeln,TotalEnergies,Halberstaedter Str.,21B,39435,Egeln,51.940555,11.418087,2014-03-18T16:45:31.000+01:00,"\"{\"\"openingTimes\"\":[{\"\"applicable_days\"\":31"
1fc4a001-1351-416b-847f-f02043b884ab,0.6363636363636364,1fc4a001-1351-416b-847f-f02043b884ab,JAF TANK GmbH,JAF TANK GmbH,Franz-Kirrmeier-Str.,7,67346,Speyer,49.323661,8.446009,2016-08-11T00:00:01.000+02:00,"\"{\"\"openingTimes\"\":[{\"\"applicable_days\"\":31"
f137b6fb-2c79-406d-9099-d8964724601a,0.6615384615384615,f137b6fb-2c79-406d-9099-d8964724601a,bft Köln,bft,Neusser Str.,460,50733,Köln,50.9732,6.9512,2014-03-18T16:45:31.000+01:00,"\"{\"\"overrides\"\":[{\"\"startp\"\":\"\"2024-12-31 07:00\"\""
95f4aa20-75b6-4c6a-95e6-586e782210d6,0.7714285714285715,95f4aa20-75b6-4c6a-95e6-586e782210d6,Shell Eching Dieselstr. 28,Shell,Dieselstr.,28,85386,Eching,48.310629,11.64671,2020-01-21T12:01:18.000+01:00,"\"{\"\"openingTimes\"\":[{\"\"applicable_days\"\":255"
a0f06ddf-28df-4ec8-b45f-6352e5d6e7e6,0.7575757575757576,a0f06ddf-28df-4ec8-b45f-6352e5d6e7e6,Shell Gschwend Gmuender Str. 43,Shell,Gmuender Str.,43,74417,Gschwend,48.930931,9.741649,2014-03-18T16:45:31.000+01:00,{}
6177d9a7-59da-49c9-9845-282c44f22c63,0.9696969696969697,6177d9a7-59da-49c9-9845-282c44f22c63,Shell Immenstaad Am Bodensee Meersburger Str . 26,Shell,Meersburger Str .,26,88090,Immenstaad Am Bodensee,47.665557,9.358859,2014-03-18T16:45:31.000+01:00,{}
